_id,School Name,Enrolled population,DTP coverage rate (%),DTP Religious exemption rate (%),MMR coverage rate (%),MMR Religious exemption rate (%),Lat,Lng
1,A Y Jackson S.S.,1027,89,1.1,96.5,1.1,43.8052613,-79.36655529
2,Academie Alexandre-Dumas,129,86.8,1.6,89.1,1.6,43.76241881,-79.17976522
3,Adam Beck Jr P.S.,309,96.1,3.6,95.8,3.6,43.6831518,-79.28848789
4,Africentric Alternative School,77,71.4,20.8,72.7,20.8,43.74542436,-79.48826066
5,Agincourt C.I.,1241,87.3,1,98.1,1,43.78887384,-79.27890996
6,Agincourt Jr P.S.,141,99.3,0,98.6,0,43.788405590000004,-79.28117156
7,Agnes MacPhail P.S.,207,94.7,0,96.6,0,43.81926898,-79.27855339
8,Albert Campbell C.I.,1072,88.2,0.4,96.8,0.4,43.80901422,-79.27340657
9,Albion Heights JMS,294,93.9,0.7,97.3,1,43.73138826,-79.5943155
10,Alexander Muir/Gladstone Ave Jr & Sr P.S.,324,90.7,1.9,94.4,1.9,43.64602125,-79.42884725
11,Alexander Stirling P.S.,261,92.7,0.8,93.5,0.8,43.81165633,-79.20760594
12,Alexmuir Jr P.S.,226,96.9,0.4,98.2,0.4,43.80910932,-79.28561349
13,All Saints C.S.,643,87.4,3.3,91,3.3,43.68561792,-79.52716293
14,Allenby Jr P.S.,524,95.8,2.5,96.6,2.5,43.70943564,-79.41278773
15,Alpha Alternative Jr School,49,75.5,22.4,77.6,22.4,43.64572203,-79.39822258
16,Alpha II Alternative School,19,52.6,15.8,68.4,15.8,43.65955743,-79.43628284
17,Alternative Scarborough Education 1,15,86.7,0,100,0,43.76664525,-79.25479628
18,Alvin Curling P.S.,383,94.5,1.8,95.8,1.8,43.80849215,-79.1906336
19,Amesbury Middle School,268,92.2,1.1,95.9,1.1,43.70869774,-79.49401438
20,Ancaster P.S.,57,89.5,0,91.2,0,43.73286617,-79.46699263
21,Annette Street Jr & Sr P.S.,384,92.2,2.3,95.3,2.3,43.66142319,-79.47283128
22,Annunciation C.S.,253,87,2,89.7,2,43.75335089,-79.32126782
23,Anson Park P.S.,162,92.6,0.6,93.2,0.6,43.72620958,-79.2412876
24,Anson S Taylor Jr P.S.,122,100,0,100,0,43.80429198,-79.26156134
25,Arbor Glen P.S.,185,97.3,1.1,96.2,1.1,43.809486389999996,-79.35570944
26,Armour Heights P.S.,179,95.5,2.8,95,2.8,43.74091004,-79.41952228
27,Avondale Alternative Elementary,94,90.4,6.4,92.6,6.4,43.76021084,-79.40015609
28,Avondale P.S.,221,93.7,1.4,91.4,1.4,43.77649346,-79.38518674
29,Avondale Secondary Alternative,37,73,2.7,89.2,2.7,43.78630651,-79.41184315
30,Bala Avenue Community School,129,97.7,0,97.7,0,43.68946222,-79.49901227
31,Balmy Beach Community School,252,96,2.8,96.8,2.8,43.67643592,-79.28982694
32,Banting and Best P.S.,218,96.8,0,97.2,0,43.82666428,-79.28015052
33,Baycrest P.S.,81,87.7,8.6,85.2,8.6,43.72660578,-79.44425151
34,Bayview Middle School,443,94.6,0.5,95,0.5,43.77649346,-79.38518674
35,Beaches Alternative Jr,44,79.5,18.2,81.8,18.2,43.68261997,-79.29912788
36,Beaumonde Heights JMS,430,95.6,0.7,95.6,0.7,43.74295714,-79.57553054
37,Bedford Park P.S.,534,95.5,2.2,97,2.2,43.7278547,-79.40002762
38,Bellmere Jr P.S.,237,96.2,1.3,95.4,1.3,43.77196929,-79.23514688
39,Ben Heppner Vocal Music Academy,45,84.4,11.1,82.2,11.1,43.77515588,-79.21506873
40,Bendale Business & Technical Institute,285,84.2,2.8,96.5,2.8,43.75533976,-79.26474309
41,Bendale Jr P.S.,238,99.2,0,98.3,0,43.76256712,-79.24488026
42,Bennington Heights Elementary,129,99.2,0.8,98.4,0.8,43.69388246,-79.36955263
43,Berner Trail Jr P.S.,158,98.1,0,96.8,0,43.80156209,-79.22135257
44,Bessborough Dr. EMS,419,91.9,2.1,96.4,2.1,43.70721474,-79.370135200000007
45,Beverley Heights Middle School,434,85.5,1.6,91.7,1.6,43.7330246,-79.50477172
46,Beverley School,64,84.4,4.7,87.5,4.7,43.65576524,-79.3957051
47,Beverly Glen Jr P.S.,284,97.9,1.4,98.6,1.4,43.7986531,-79.32306763
48,Birch Cliff Heights P.S.,188,96.3,0.5,97.9,0.5,43.70174139,-79.25981662
49,Birch Cliff P.S.,270,92.6,2.2,95.9,2.2,43.69198872,-79.26556862
50,Birchmount Park C.I.,833,85.1,0.8,96.2,0.8,43.69775303,-79.25945453
51,Bishop Allen Academy Catholic S.S.,1540,85.1,2.3,93.6,2.2,43.63442792,-79.50446469
52,Bishop Marrocco/Thomas Merton Catholic S.S.,686,81,0.7,91.3,0.7,43.65585783,-79.45180771
53,Blacksmith P.S.,93,92.5,1.1,95.7,1.1,43.77116396,-79.52681069
54,Blake Street Jr P.S.,200,96,2.5,96.5,2.5,43.67180637,-79.33847625
55,Blantyre P.S.,194,93.8,3.6,93.8,3.6,43.68510008,-79.28386465
56,Blaydon P.S.,99,93.9,1,92.9,1,43.73535722,-79.48625614
57,Blessed Cardinal Newman C.S.,973,84.8,1,96.1,0.9,43.71492227,-79.24006423
58,Blessed Margherita of Citta Castello C.S.,241,90,0.4,93.8,0.4,43.74367247,-79.50791404
59,Blessed Pier Giorgio Frassati C.S.,224,90.2,1.3,91.1,1.3,43.8298752,-79.23273752
60,Blessed Pope Paul Vi C.S.,228,87.7,0,90.4,0,43.6740129,-79.45779303
61,Blessed Sacrament C.S.,400,89.3,2.8,91,2.8,43.72748161,-79.40399752
62,Blessed Trinity C.S.,158,89.2,1.9,90.5,1.9,43.78689754,-79.3918262
63,Bliss Carman Senior P.S.,281,85.8,1.8,93.6,1.8,43.73264896,-79.22560188
64,Bloor C.I.,834,87.4,2,96.6,2,43.65955743,-79.43628284
65,Bloordale Middle School,368,89.4,3.5,95.7,3.5,43.63914565,-79.57194653
66,Bloorlea Middle School,286,92.3,2.4,95.5,2.4,43.63752088,-79.55530155
67,Blythwood Jr P.S.,269,97,2.6,96.7,2.2,43.7199315,-79.38950571
68,Bowmore Road Jr & Sr P.S.,705,92.2,3.1,95.7,3,43.67606366,-79.31449172
69,Boys' Leadership Academy,47,89.4,2.1,93.6,2.1,43.7222273,-79.55211379
70,Braeburn Jr School,93,95.7,1.1,92.5,1.1,43.72802983,-79.54886381
71,Brebeuf College School,852,81.6,1.1,90.6,1.1,43.80151617,-79.40303816
72,Brian P.S.,206,93.7,2.4,93.7,2.4,43.78171952,-79.3318066
73,Briarcrest Jr School,189,95.8,3.2,95.8,2.6,43.66646577,-79.58007528
74,Bridlewood Jr P.S.,147,93.2,2,91.8,2,43.78079627,-79.31509539
75,Brimwood Boulevard Jr P.S.,234,97.9,0.4,98.7,0.4,43.81169988,-79.27408966
76,Broadacres Jr P.S.,236,94.9,3.4,95.8,3.4,43.64806672,-79.57202073
77,Broadlands P.S.,341,94.1,5.3,93.5,5.3,43.74590267,-79.3166278
78,Brock P.S.,204,90.7,2.9,93.6,2.9,43.65304969,-79.43784413
79,Brookhaven P.S.,216,97.2,0.9,97.7,0.9,43.7025063,-79.4956944
80,Brookmill Boulevard Jr P.S.,152,100,0,98,0,43.80122038,-79.314868
81,Brookside P.S.,532,94.2,0.2,97.6,0.2,43.83057174,-79.23360752
82,Brookview Middle School,421,88.1,0.5,93.1,0.5,43.76745724,-79.51724666
83,Brown Jr P.S.,362,92.8,2.2,94.2,2.2,43.68491292,-79.40131227
84,Bruce Jr P.S.,138,95.7,1.4,97.1,1.4,43.66103582,-79.33333606
85,Buchanan P.S.,226,92.9,2.7,94.2,2.7,43.75152561,-79.29989207
86,Burrows Hall Jr P.S.,138,96.4,0.7,98.6,0.7,43.79269796,-79.22881801
87,C D Farquharson Jr P.S.,225,97.3,0,99.1,0,43.78446716,-79.26610554
88,C R Marchant Middle School,419,92.1,2.4,92.6,2.4,43.70172148,-79.5129334
89,C W Jefferys C.I.,738,85.6,1.5,93.6,1.5,43.75767646,-79.50009059
90,Calico P.S.,162,85.8,3.1,89.5,3.1,43.73790618,-79.50359204
91,Cameron P.S.,177,97.2,2.3,96,2.3,43.7543607,-79.42125155
92,Canadian Martyrs C.S.,243,88.1,0.4,87.7,0.4,43.69819992,-79.31933864
93,Cardinal Carter Academy for The Arts,780,83.2,2.7,96.3,2.8,43.76409501,-79.40976158
94,Cardinal Leger C.S.,224,91.1,0.4,93.8,0.4,43.7930958,-79.17570791
95,Carleton Village Jr and Sr P.S.,227,94.3,2.6,93,2.6,43.67235281,-79.4600288
96,Cassandra P.S.,166,97.6,1.8,97.6,1.8,43.74842501,-79.32890148
97,Cedar Drive Jr P.S.,419,96.4,0.7,95.5,0.7,43.74585281,-79.21505094
98,Cedarbrae C.I.,1019,85,1.2,94.9,1.1,43.7563409,-79.22592486
99,Cedarbrook P.S.,391,95.4,2,96.2,2,43.74729339,-79.23019275
100,Cedarvale Community School,293,95.2,2.7,94.9,2.7,43.69613028,-79.43032756
101,Centennial Road Jr P.S.,161,97.5,2.5,96.9,2.5,43.78696228,-79.15002381
102,Central Etobicoke High School,80,73.8,8.8,88.8,8.8,43.67901856,-79.55548893
103,Central Technical School,724,82.5,3.2,92.3,2.9,43.66270411,-79.40980856
104,Central Toronto Academy,503,78.5,4,88.5,4,43.65797846,-79.42199861
105,Chalkfarm P.S.,139,89.9,1.4,90.6,1.4,43.72710643,-79.51439274
106,Chaminade College School,913,89.6,1,97.8,1,43.71009096,-79.49605946
107,Charles E Webster P.S.,311,95.8,1,96.8,1,43.69343444,-79.47509952
108,Charles G Fraser Jr P.S.,138,92.8,2.2,94.9,2.2,43.64853008,-79.40948363
109,Charles Gordon Senior P.S.,328,87.8,2.1,94.5,2.1,43.7464559,-79.2609587
110,Charles H Best Middle School,347,86.7,1.7,89.3,1.7,43.76744525,-79.45863024
111,Charlottetown Jr P.S.,260,95,4.6,95,4.6,43.78207023,-79.14220896
112,Chartland Jr P.S.,117,98.3,0.9,95.7,0.9,43.79961824,-79.2779223
113,Cherokee P.S.,112,93.8,3.6,94.6,3.6,43.79876275,-79.33861474
114,Chester Elementary School,277,96.8,1.8,96.8,1.8,43.68760238,-79.35170998
115,Chester Le Jr P.S.,87,87.4,5.7,88.5,5.7,43.79858771,-79.33109534
116,Chief Dan George P.S.,231,94.4,0.9,96.5,0.9,43.80272231,-79.16383466
117,Chine Drive P.S.,106,93.4,4.7,92.5,4.7,43.70998259,-79.24179689
118,Church Street Jr P.S.,188,90.4,1.1,90.4,1.1,43.66360843,-79.37917817
119,Churchill Heights P.S.,306,97.1,1,98,1,43.77298911,-79.22439265
120,Churchill P.S.,234,96.2,2.1,94.9,2.1,43.7707536,-79.42703616
121,City School,81,79,11.1,87.7,11.1,43.63574882,-79.39718759
122,City View Alternative Sr,54,77.8,20.4,79.6,20.4,43.64852424,-79.43672217
123,Claireville Jr School,144,97.2,1.4,94.4,1.4,43.7478422,-79.59822775
124,Clairlea P.S.,415,92.5,2.9,95.2,2.9,43.71658998,-79.29618668
125,Claude Watson School for The Arts,300,94.3,3,96.7,3,43.7653996,-79.40921782
126,Cliffside P.S.,142,97.2,1.4,95.8,1.4,43.70488211,-79.25053604
127,Cliffwood P.S.,198,97,1,96.5,1,43.80629209,-79.3600686
128,Clinton Street Jr P.S.,273,95.6,2.9,96,2.6,43.65764607,-79.41405757
129,College Francais elementaire,118,70.3,3.4,79.7,3.4,43.66248824,-79.37790696
130,Greenland P.S.,81,96.3,2.5,95.1,2.5,43.73360704,-79.33853293
131,College Francais Secondaire,154,77.9,4.5,87,4.5,43.66248824,-79.37790696
132,Contact Alternative School,35,68.6,5.7,94.3,5.7,43.65376573,-79.3903939
133,Cordella Jr P.S.,77,94.8,2.6,93.5,2.6,43.67907009,-79.48758544
134,Cornell Jr P.S.,464,96.3,0.2,95.9,0.2,43.75939258,-79.21803822
135,Corvette Jr P.S.,349,94.6,0.9,95.4,0.9,43.72648511,-79.26215973
136,Cosburn Middle School,641,91.6,1.9,96.7,1.9,43.69375152,-79.33092844
137,Cottingham Jr P.S.,100,96,3,96,3,43.68037944,-79.39560901
138,Courcelette P.S.,215,91.2,6.5,93,6.5,43.67931883,-79.27856592
139,Crescent Town Elementary,258,93.4,1.2,95,1.2,43.69683675,-79.29246651
140,Cresthaven P.S.,167,95.2,3.6,95.2,3.6,43.79756474,-79.36435747
141,Crestview P.S.,177,98.3,0,96.6,0,43.78843218,-79.3598466
142,Cummer Valley Middle School,418,97.4,0.2,94.5,0.2,43.78876462,-79.40095036
143,D A Morrison Middle School,426,92.5,2.1,95.1,2.3,43.69539646,-79.31169244
144,Da Vinci School,47,57.4,36.2,59.6,36.2,43.65895304,-79.40190985
145,Dallington P.S.,273,96.3,1.8,97.1,1.8,43.77712813,-79.35475535
146,Danforth C. I. and Technical School,945,86.8,2.2,96.4,2.2,43.68283873,-79.33408956
147,Danforth Gardens P.S.,356,93.3,0.8,92.1,0.8,43.70845556,-79.27097739
148,Dante Alighieri Academy,785,82.2,0.6,92.6,0.6,43.71007742,-79.45836983
149,D'Arcy McGee C.S.,217,94.5,0,95.4,0,43.69225563,-79.44291158
150,David and Mary Thomson C.I.,937,87,1,94.7,1,43.75360656,-79.25957913
151,David Hornell Jr School,140,91.4,4.3,91.4,4.3,43.61933328,-79.48889366
152,David Lewis P.S.,344,95.1,0,95.9,0,43.80919671,-79.31788606
153,Davisville Jr P.S.,304,96.1,2,95.7,2,43.690769,-79.436797
154,Daystrom P.S.,235,96.6,0,98.3,0,43.74794693,-79.5469633
155,Deer Park Jr & Sr P.S.,404,91.6,3.2,94.1,3.2,43.68965195,-79.39155638
156,Delphi Secondary Alternative,84,79.8,3.6,94,3.6,43.79961824,-79.2779223
157,Delta Senior Alternative,60,88.3,10,88.3,10,43.65868159,-79.41884372
158,Denlow P.S.,259,96.5,3.1,96.5,2.7,43.74583949,-79.36422773
159,Dennis Avenue Community School,54,90.7,3.7,94.4,3.7,43.68441954,-79.48728632
160,Derrydown P.S.,231,94.8,2.2,94.8,2.2,43.75868993,-79.49371018
161,Dewson Street Jr P.S.,300,93.3,5.3,93.7,5.3,43.65654907,-79.42458469
162,Diefenbaker Elementary,247,91.9,4.5,94.7,4.5,43.69505953,-79.33214394
163,Dixon Grove JMS,594,89.9,0.3,93.9,0.3,43.68470917,-79.55595464
164,Don Mills C.I.,935,86.5,1.9,95.7,1.9,43.73595929,-79.33927715
165,Don Mills Middle School,409,88.8,2.4,93.4,2.4,43.73685277,-79.3404328
166,Don Valley Jr H.S.,363,92.6,0.6,96.4,0.6,43.78953291,-79.35496656
167,Donview Middle Health & Wellness Academy,356,85.4,1.7,92.4,1.7,43.76418772,-79.33143831
168,Donwood Park Jr P.S.,449,90.9,2.2,91.5,2.2,43.75697831,-79.26236511
169,Dorset Park P.S.,159,91.8,0.6,96.2,0.6,43.75021495,-79.27986197
170,Dovercourt P.S.,293,91.8,2.7,93.2,2.7,43.66673561,-79.43577895
171,Downsview P.S.,121,95.9,1.7,95,1.7,43.73111384,-79.4824358
172,Downsview S.S.,501,79.2,2,90.2,2,43.73039575,-79.47965761
173,Downtown Alternative School,66,92.4,6.1,90.9,6.1,43.64773613,-79.37041565
174,Downtown Vocal Music Academy of Toronto,47,87.2,6.4,89.4,6.4,43.65122054,-79.40263666
175,Dr Marion Hilliard Sr P.S.,269,89.6,1.5,96.3,1.5,43.80368608,-79.22482183
176,Dr Norman Bethune C.I.,932,90.1,0.2,98,0.2,43.81216214,-79.31942841
177,Drewry S.S.,49,81.6,2,89.8,2,43.78698147,-79.42121369
178,Driftwood P.S.,240,90.4,0.4,92.1,0.4,43.76255571,-79.51513769
179,Dublin Heights EMS,631,91,3.3,91.9,3.5,43.74909669,-79.44772492
180,Duke of Connaught Jr & Sr P.S.,695,94.2,3,96,3,43.66639455,-79.322043
181,Dundas Jr P.S.,206,95.1,2.4,94.2,2.4,43.66207775,-79.34868633
182,Dunlace P.S.,209,96.7,1.9,95.7,1.9,43.76245942,-79.37035733
183,Earl Beatty Jr & Sr P.S.,277,95.3,4.3,94.9,4.3,43.68601803,-79.32156563
184,Earl Grey Sr P.S.,452,89.6,2.4,96.7,2.4,43.67680529,-79.33992929
185,Earl Haig P.S.,372,94.4,2.4,96.8,2.4,43.68133145,-79.32125047
186,Earl Haig S.S.,1810,87.3,1.2,96.6,1.2,43.76953933,-79.4073635
187,East Alternative School of Toronto,62,91.9,3.2,96.8,3.2,43.67180637,-79.33847625
188,East York Alternative S.S.,60,90,0,100,0,43.69499136,-79.32529564
189,East York C.I.,1003,85.6,2.6,94.9,2.5,43.69450873,-79.32735334
190,Eastdale C.I.,95,84.2,1.1,96.8,1.1,43.66592657,-79.34881892
191,Eastview P.S.,226,86.3,0,89.4,0,43.75906266,-79.19133529
192,Eatonville Junior School,131,96.2,0,95.4,0,43.63830795,-79.56700242
193,Ecole elementaire Charles-Sauriol,205,84.9,0.5,86.8,0.5,43.66767367,-79.45534963
194,Ecole elementaire etienne-Brule,151,76.8,1.3,86.1,1.3,43.75221224,-79.37159325
195,Ecole elementaire Felix-Leclerc,124,79,5.6,80.6,5.6,43.68969312,-79.56144563
196,Ecole elementaire Gabrielle-Roy,159,85.5,2.5,85.5,2.5,43.656787,-79.372213
197,Ecole elementaire Jeanne-Lajoie,252,82.1,0.8,85.7,0.8,43.73449677,-79.32149457
198,Ecole elementaire La Mosaique,273,88.6,5.5,90.8,5.1,43.68733045,-79.33053499
199,Ecole elementaire Laure-Riese,174,78.7,3.4,78.2,3.4,43.82246261,-79.27742207
200,Ecole elementaire Mathieu-Da-Costai,102,76.5,0,85.3,0,43.71782794,-79.4755347
201,Ecole elementaire Micheline-Saint-Cyr,49,81.6,0,71.4,0,43.59021886,-79.54378099
202,Ecole elementaire Paul-Demers,66,53,1.5,60.6,1.5,43.79195184,-79.36734039
203,Ecole elementaire Pierre-Elliott-Trudeau,213,89.2,4.2,86.9,4.2,43.65199104,-79.41409749
204,Ecole elementaire Toronto Ouest,156,80.8,2.6,90.4,2.6,43.65238363,-79.44123542
205,Ecole Secondaire etienne-Brule,281,81.9,2.5,92.9,2.5,43.75221224,-79.37159325
206,Ecole Secondaire Toronto Ouest,153,85,2.6,92.8,2.6,43.65238363,-79.44123542
207,Edgewood P.S.,119,98.3,0,98.3,0,43.76630546,-79.26581203
208,EEC Du Sacre-Coeur-Toronto,69,88.4,0,89.9,0,43.66825375,-79.42226809
209,EEC Georges-etienne-Cartier,233,88.8,0.9,91,0.9,43.67790389,-79.31947311
210,EEC Notre-Dame-De-Grce - Toronto,105,85.7,1.9,86.7,1.9,43.67946894,-79.55953947
211,EEC Sainte-Madeleine,156,89.1,0.6,90.4,0.6,43.76196879,-79.32271315
212,EEC Sainte-Marguerite-D'Youville,215,87.4,3.7,86.5,3.7,43.636066,-79.505891
213,EEC Saint-Jean-De-Lalande,76,88.2,2.6,88.2,2.6,43.80475002,-79.26408826
214,EEC Saint-Michel-Toronto,100,87,1,90,1,43.77745328,-79.15700499
215,EEC Saint-Noel-Chabanel-Toronto,98,85.7,1,85.7,1,43.73677565,-79.56076094
216,Eglinton Jr P.S.,280,94.3,2.1,93.6,2.1,43.70790375,-79.39084683
217,EIC Monseigneur-De-Charbonnel,62,88.7,3.2,90.3,3.2,43.78698147,-79.42121369
218,EIC Pere-Philippe-Lamarche,74,93.2,0,93.2,0,43.73888853,-79.24070576
219,EIC Saint-Frere-Andre,74,87.8,4.1,87.8,4.1,43.65238363,-79.44123542
220,Elia Middle School,290,88.3,0.3,94.5,0.3,43.75379932,-79.49845831
221,Elizabeth Simcoe Jr P.S.,203,94.1,5.4,94.6,5.4,43.73815196,-79.20603487
222,Elkhorn P.S.,243,96.7,2.5,96.3,2.5,43.77121539,-79.38006244
223,Ellesmere-Statton P.S.,460,91.5,0.9,94.8,0.9,43.76362361,-79.287572
224,Elmbank JMA,245,95.1,2.4,95.5,2.4,43.7365019,-79.59004707
225,Elmlea Jr School,229,88.6,3.1,89.1,3.1,43.71562668,-79.55057615
226,Emery C.I.,484,85.5,1.2,93.8,1.2,43.74872271,-79.53955698
227,Emily Carr P.S.,229,96.9,1.3,97.4,1.3,43.80502239,-79.20693586
228,Epiphany of Our Lord Catholic Academy,141,81.6,0,86.5,0,43.7989581,-79.32894025
229,Equinox Holistic Alternative,132,78,22,78,22,43.67387327,-79.32307649
230,Ernest P.S.,69,95.7,1.4,91.3,1.4,43.79141547,-79.33738257
231,ESC Monseigneur-de-Charbonnel,140,81.4,2.1,96.4,2.1,43.78698147,-79.42121369
232,ESC Pere-Philippe-Lamarche,81,80.2,0,93.8,0,43.73888853,-79.24070576
233,ESC Saint-Frere-Andre,142,81,3.5,94.4,3.5,43.65238363,-79.44123542
234,Essex Jr & Sr P.S.,208,85.6,3.4,90.9,3.4,43.66825375,-79.42226809
235,Etienne Brule Jr School,105,96.2,2.9,94.3,2.9,43.63561874,-79.48968446
236,Etobicoke C.I.,957,86.4,1.8,96.6,1.8,43.6500842,-79.52229621
237,Etobicoke School of The Arts,929,80.1,4.3,93.4,4.3,43.63073221,-79.50414852
238,Etobicoke Year Round Alternative Centre,26,88.5,3.8,96.2,3.8,43.63385785,-79.55127611
239,F H Miller Jr P.S.,77,92.2,2.6,93.5,2.6,43.68400577,-79.45889809
240,Fairbank JMS,230,87.4,3,91.7,3,43.69435391,-79.44941775
241,Fairbank Memorial Community School,78,92.3,0,93.6,0,43.69170324,-79.4554057
242,Fairglen Jr P.S.,236,97.5,0,99.2,0,43.78493638,-79.32223819
243,Fairmount P.S.,308,95.1,1.6,96.4,1.6,43.71975809,-79.23089418
244,Father Henry Carr Catholic S.S.,850,83.8,0.5,94.5,0.5,43.73584248,-79.59237755
245,Father John Redmond Catholic S.S.,1187,83,3,94.4,3,43.59514135,-79.51653877
246,Father Serra C.S.,386,88.9,3.4,92.7,3.4,43.68624343,-79.53684468
247,Faywood Arts-Based Curriculum School,324,91.4,4.6,88.9,4.6,43.73985504,-79.44669733
248,Fenside P.S.,124,91.9,0.8,94.4,0.8,43.76458052,-79.32912658
249,Fern Avenue Jr & Sr P.S.,545,92.5,2.6,96.5,2.6,43.64518032,-79.44611284
250,Finch P.S.,151,92.7,2.6,92.7,2.6,43.78383308,-79.3949742
251,Firgrove P.S.,208,93.3,0,94.2,0,43.75200089,-79.51991086
252,Fisherville Sr P.S.,159,79.2,1.3,83,1.3,43.78456549,-79.44100625
253,Fleming P.S.,192,98.4,0,99.5,0,43.81536122,-79.20371416
254,Flemington P.S.,133,97.7,0,96.2,0,43.72012525,-79.444245660000007
255,Forest Hill C.I.,928,87,1.3,96,1.3,43.70305826,-79.42134278
256,Forest Hill Jr & Sr P.S.,675,95,1.6,95,1.6,43.69539527,-79.414124
257,Forest Manor P.S.,393,93.9,0.3,94.7,0.3,43.77104274,-79.3430668
258,Francis Libermann Catholic H.S.,878,86,0.8,95.4,0.8,43.80739234,-79.27430784
259,Frank Oke S.S.,74,82.4,2.7,97.3,2.7,43.67751242,-79.48875423
260,Frankland Community School,233,93.6,3.4,94,3.4,43.67713734,-79.34993745
261,Galloway Road P.S.,148,89.2,1.4,92.6,1.4,43.76498481,-79.19683417
262,Garden Avenue Jr P.S.,172,97.7,2.3,95.9,2.3,43.64320011,-79.4491237
263,Gateway P.S.,522,93.9,1.7,93.1,1.7,43.71172622,-79.33100915
264,General Brock P.S.,302,94,1.7,94,1.7,43.7184085,-79.27486723
265,General Crerar P.S.,285,93.3,2.1,96.1,2.1,43.74568677,-79.27957766
266,General Mercer Jr P.S.,130,90.8,4.6,90.8,4.6,43.67905973,-79.46401246
267,George Anderson P.S.,91,100,0,96.7,0,43.70545353,-79.47894806
268,George B Little P.S.,294,95.2,0.3,96.3,0.3,43.77119941,-79.20811045
269,George Harvey C.I.,401,80,0.7,85.8,0.7,43.68454651,-79.47369919
270,George P Mackie Jr P.S.,77,93.5,5.2,93.5,5.2,43.73932731,-79.21199397
271,George Peck P.S.,187,90.4,1.1,93.6,0.5,43.73825848,-79.29363519
272,George R Gauld Jr School,75,96,0,100,0,43.62063709,-79.49851943
273,George S Henry Academy,338,81.1,1.2,92.3,1.2,43.76435996,-79.33992003
274,George Syme Community School,226,92,2.2,93.8,2.2,43.66925138,-79.49112677
275,George Webster Elementary,538,87.7,0.7,90,0.7,43.7010489,-79.29976062
276,Georges Vanier S.S.,747,76.2,0.3,86.1,0.3,43.7842923,-79.35049619
277,Givins/Shaw Jr P.S.,194,92.8,3.6,93.3,3.6,43.64640766,-79.41758429
278,Glamorgan Jr P.S.,327,97.6,0,96.9,0,43.77130031,-79.28955383
279,Gledhill Jr P.S.,258,96.1,2.7,96.9,2.7,43.68765348,-79.30951421
280,Glen Ames Sr P.S.,414,90.8,1.7,97.6,1.7,43.67395983,-79.29833223
281,Glen Park P.S.,307,96.4,2.9,96.1,2.9,43.71317225,-79.43638199
282,Glen Ravine Jr P.S.,179,98.9,0.6,98.9,0.6,43.73822463,-79.25405895
283,Glenview Sr P.S.,768,90.9,1,98,1,43.71997644,-79.4095247
284,Golf Road Jr P.S.,190,98.4,0,99.5,0,43.76365832,-79.21697024
285,Gordon A Brown Middle School,368,90.5,4.1,94,4.1,43.70786931,-79.30535295
286,Gosford P.S.,150,95.3,0,98,0,43.76431849,-79.52132419
287,Gracedale P.S.,363,93.9,1.1,93.7,1.1,43.75319754,-79.56184211
288,Gracefield P.S.,140,90.7,0.7,94.3,0.7,43.70932053,-79.49134131
289,Greenholme JMS,234,96.2,0,98.7,0,43.73507154,-79.58290811
290,Greenwood S.S.,123,61.8,0,64.2,0,43.68283873,-79.33408956
291,Grenoble P.S.,623,95.5,0.8,95.5,0.8,43.71527454,-79.33225251
292,Grey Owl Jr P.S.,143,91.6,2.8,91.6,2.8,43.8039893,-79.21330032
293,Guildwood Jr P.S.,63,92.1,7.9,92.1,7.9,43.75082107,-79.19998668
294,Gulfstream P.S.,435,91.3,1.1,94,1.1,43.73907798,-79.5420098
295,H A Halbert Jr P.S.,136,95.6,0.7,96.3,0.7,43.7276496,-79.23173607
296,H J Alexander Community School,304,91.8,1.6,91.4,1.6,43.70249383,-79.52054426
297,Harbord C.I.,1014,84.4,2.9,96.1,2.9,43.66128952,-79.41426662
298,Harrison P.S.,102,97.1,1,97.1,1,43.75736847,-79.37730861
299,Harwood P.S.,130,90.8,0.8,96.2,0.8,43.67618591,-79.47841248
300,Hawthorne II Bilingual Alternative Jr,119,93.3,5.9,92.4,5.9,43.66825375,-79.42226809
301,Heather Heights Jr P.S.,118,94.1,0.8,92.4,0.8,43.77515588,-79.21506873
302,Henry Hudson Senior P.S.,287,92.7,0.7,96.9,0.7,43.77773718,-79.21446737
303,Henry Kelsey Senior P.S.,298,94,0.3,98.3,0.3,43.79834559,-79.27702821
304,Heritage Park P.S.,237,95.4,0.8,95.4,0.8,43.82135089,-79.20772016
305,Heydon Park S.S.,91,75.8,2.2,97.8,2.2,43.65496461,-79.39453475
306,High Park Alternative Jr,96,82.3,13.5,84.4,13.5,43.66142319,-79.47283128
307,Highcastle P.S.,225,97.8,0.4,97.3,0.4,43.7867616,-79.21249563
308,Highfield Jr School,381,93.4,0.5,93.4,0.5,43.74557567,-79.58920656
309,Highland Creek P.S.,138,97.1,0.7,96.4,0.7,43.7835009,-79.17844629
310,Highland Heights Jr P.S.,115,96.5,0.9,96.5,0.9,43.79441991,-79.30026235
311,Highland Jr High School,482,94,1,96.9,1,43.80686038,-79.35544809
312,Highview P.S.,101,89.1,0,90.1,0,43.72195105,-79.49723027
313,Hillcrest Community School,224,94.2,4.5,94.2,4.5,43.67904245,-79.41584478
314,Hillmount P.S.,121,93.4,2.5,94.2,2.5,43.79940759,-79.35072651
315,Hilltop Middle School,558,91.9,3.6,94.3,3.6,43.68946274,-79.53306701
316,Hodgson Sr P.S.,528,93.9,2.7,95.6,2.7,43.701095,-79.38479329
317,Hollycrest Middle School,475,90.7,3.4,94.3,3.4,43.65610422,-79.58270785
318,Hollywood P.S.,224,97.3,0.9,97.3,0.9,43.77051851,-79.39182913
319,Holy Angels C.S.,368,88,2.2,90.2,2.2,43.62840926,-79.517657259999993
320,Holy Child C.S.,227,87.7,0,91.2,0,43.72888587,-79.61918187
321,Holy Cross C.S.,239,87.4,0.8,88.3,0.8,43.68998755,-79.34067637
322,Holy Family C.S.,167,82,1.2,83.2,1.2,43.63875022,-79.434911
323,Holy Name C.S.,234,87.6,1.7,91,1.7,43.6773475,-79.34728484
324,Holy Rosary C.S.,193,87.6,1.6,87.6,1.6,43.68504731,-79.41404533
325,Holy Spirit C.S.,324,84.3,0,85.8,0,43.78120775,-79.30309624
326,Horizon Alternative Sr School,67,85.1,7.5,91,7.5,43.65797846,-79.42199861
327,Howard Jr P.S.,328,94.8,4.3,94.8,4.3,43.65029872,-79.45199586
328,Humber Summit Middle School,450,88.4,1.1,90.7,1.1,43.75056475,-79.56452219
329,Humber Valley Village JMS,291,91.1,5.5,92.8,5.5,43.6655283,-79.52733737
330,Humbercrest P.S.,494,94.5,2.6,96.4,2.6,43.66045265,-79.49105537
331,Humberside C.I.,1195,84.1,2.6,96.2,2.6,43.65994272,-79.4706428
332,Humberwood Downs JMA,554,95.8,0.4,96.4,0.4,43.72888587,-79.61918187
333,Humewood Community School,410,93.7,3.9,95.1,3.7,43.68663509,-79.42802045
334,Hunter's Glen Jr P.S.,302,92.1,0.7,94.4,0.7,43.74571225,-79.26012199
335,Huron Street Jr P.S.,202,93.6,4.5,95.5,4.5,43.67103818,-79.4024111
336,Immaculate Conception C.S.,340,92.4,0,93.2,0,43.69768014,-79.4778217
337,Immaculate Heart of Mary C.S.,120,90.8,1.7,90.8,1.7,43.6961448,-79.262458
338,Indian Road Crescent Jr P.S.,204,94.1,4.4,95.1,4.4,43.66252873,-79.4600779
339,Inglenook Community School,50,78,4,88,6,43.65397529,-79.35940072
340,Inglewood Heights Jr P.S.,140,91.4,1.4,90.7,1.4,43.78046514,-79.29090549
341,Ionview P.S.,262,93.9,0,94.7,0,43.73761289,-79.27469827
342,Iroquois Jr P.S.,240,99.2,0,99.2,0,43.80268016,-79.26944081
343,Island Public/Natural Science School,154,95.5,3.2,96.1,3.2,43.61570028,-79.37838814
344,Islington JMS,342,92.1,1.8,93,1.8,43.64748282,-79.52794669
345,J B Tyrrell Sr P.S.,415,90.8,1.2,96.4,1.4,43.78887877,-79.32417507
346,J G Workman P.S.,136,93.4,0,94.1,0,43.70719126,-79.26712793
347,J R Wilcox Community School,186,94.6,2.7,93.5,2.7,43.69494679,-79.43630526
348,Jack Miner Sr P.S.,197,93.4,1,97.5,1,43.74968863,-79.18696834
349,Jackman Avenue Jr P.S.,414,94.4,4.1,94.4,4.3,43.68065022,-79.35393536
350,James Cardinal McGuigan Catholic H.S.,794,76.8,0.4,85.1,0.4,43.76328957,-79.4937986
351,James Culnan C.S.,346,91.3,0.6,93.6,0.6,43.66110712,-79.48558425
352,James S Bell JMS,318,91.2,4.1,92.8,4.1,43.59435423,-79.5301917
353,Jarvis C.I.,638,86.8,0.9,95.5,0.8,43.6662522,-79.37803485
354,Jean Vanier Catholic S.S.,821,82.7,0.5,91.6,0.4,43.73793993,-79.25841437
355,Jesse Ketchum Jr & Sr P.S.,345,89.6,3.2,90.7,3.2,43.67298262,-79.39213923
356,John A Leslie P.S.,383,93,0.3,93.7,0.3,43.71412189,-79.24885208
357,John Buchan Sr P.S.,184,90.2,0,94,0,43.78520343,-79.30085689
358,John D Parker Jr School,253,97.6,0.4,96.4,0.4,43.75338681,-79.59579099
359,John English JMS,698,91.7,3.6,93.6,3.6,43.61185573,-79.494418
360,John Fisher Jr P.S.,292,92.8,3.8,94.5,3.8,43.71192825,-79.39746938
361,John G Althouse Middle School,480,93.1,2.9,96,2.9,43.66811641,-79.55416146
362,John G Diefenbaker P.S.,171,94.7,2.9,96.5,2.9,43.80229503,-79.17186953
363,John McCrae P.S.,404,93.3,1.5,94.8,1.5,43.74404425,-79.23988651
364,John Polanyi C.I.,743,79.1,1.6,87.9,1.6,43.71780895,-79.43985531
365,John Ross Robertson Jr P.S.,372,96.2,2.4,96.2,2.4,43.71832598,-79.4088643
366,John Wanless Jr P.S.,443,98.9,1.1,98.6,1.1,43.72877873,-79.41179965
367,Joseph Brant Sr P.S.,459,86.9,1.1,90.8,1.1,43.76704404,-79.17549755
368,Joseph Howe Sr P.S.,392,91.3,1.5,97.4,1.5,43.78580785,-79.13729821
369,Josyf Cardinal Slipyj C.S.,395,84.8,7.8,84.8,7.8,43.6594752,-79.5660254
370,Joyce P.S.,154,98.7,0,95.5,0,43.70977539,-79.46375749
371,Kapapamahchakwe - Wandering Spirit School,153,68,7.8,73.9,8.5,43.67914023,-79.33663606
372,Karen Kain School of The Arts,172,86.6,8.7,90.7,8.7,43.631123530000004,-79.50020735
373,Keele Street Jr P.S.,347,90.2,4,92.2,4,43.65750747,-79.46159657
374,Keelesdale Jr P.S.,78,96.2,0,97.4,0,43.6869571,-79.47694631
375,Kennedy P.S.,415,97.6,0,96.4,0,43.81883592,-79.30818052
376,Kensington Community School,95,90.5,3.2,91.6,3.2,43.65639782,-79.40573152
377,Kew Beach Jr P.S.,312,94.9,3.8,94.6,3.8,43.66846424,-79.30272732
378,Kimberley Jr P.S.,160,100,0,100,0,43.68261997,-79.29912788
379,King Edward Jr & Sr P.S.,499,90.6,2.6,95,2.6,43.65824412,-79.40740893
380,King George Jr P.S.,123,95.9,2.4,94.3,2.4,43.6631627,-79.48688675
381,Kingslake P.S.,128,94.5,2.3,91.4,2.3,43.7848105,-79.34572893
382,Kingsview Village Jr School,260,83.8,2.3,87.7,2.3,43.69786666,-79.55078913
383,Kipling C.I.,410,75.4,0.2,89.5,0.2,43.68528812,-79.56235372
384,Knob Hill P.S.,366,93.2,0.3,93.4,0.3,43.74529228,-79.24978503
385,Lakeshore C.I.,603,81.6,2.5,94,2.5,43.60156342,-79.51916064
386,Lamberton P.S.,189,92.1,1.6,94.7,1.6,43.7536543,-79.50282449
387,Lambton Kingsway JMS,463,91.6,3.9,94.2,3.5,43.65865722,-79.50931481
388,Runnymede C.I.,522,85.4,1.7,96.7,1.7,43.66353227,-79.48981138
389,Lambton Park Community School,79,72.2,0,74.7,0,43.66757598,-79.49830749
390,L'amoreaux C.I.,443,81.3,1.4,90.7,1.4,43.80291777,-79.31807375
391,Lanor JMS,218,94.5,3.7,95.4,3.7,43.60966673,-79.54476956
392,Lawrence Heights Middle School,148,89.9,2.7,92.6,2.7,43.72083225,-79.45107725
393,Lawrence Park C.I.,1178,85.3,2.4,97.3,2.3,43.72222271,-79.41043908
394,Leaside High School,958,86.5,1.5,97.7,1.5,43.71112409,-79.37269411
395,Ledbury Park EMS,384,94.3,1.3,94.3,1.3,43.72739047,-79.42732263
396,Lescon P.S.,112,84.8,2.7,84.8,2.7,43.78084349,-79.35749461
397,Leslieville Jr P.S.,231,95.7,0.9,97.4,0.9,43.66732077,-79.33240772
398,Lester B Pearson C.I.,1291,88,0.7,98.3,0.7,43.80333392,-79.22539867
399,Lester B Pearson Elementary,385,94.8,2.3,97.9,2.1,43.79231944,-79.38746232
400,Lillian P.S.,138,98.6,0,96.4,0,43.79782137,-79.4103985
401,Lord Dufferin Jr & Sr P.S.,306,95.8,0.7,96.7,0.7,43.66082454,-79.36695506
402,Lord Lansdowne Jr P.S.,174,95.4,3.4,96,3.4,43.65895304,-79.40190985
403,Lord Roberts Jr P.S.,252,96.4,0.4,96.8,0.4,43.74142643,-79.2636597
404,Loretto Abbey Catholic S.S.,904,86.7,1.5,97.7,1.5,43.74129632,-79.41065656
405,Loretto College School,418,84.9,0.5,96.9,0.5,43.67573671,-79.44324695
406,Lucy Maud Montgomery P.S.,133,95.5,0,98.5,0,43.79691679,-79.20936572
407,Lucy McCormick Sr School,51,33.3,5.9,80.4,5.9,43.66463261,-79.46017997
408,Lynngate Jr P.S.,104,92.3,2.9,93.3,2.9,43.77646901,-79.30071632
409,Lynnwood Heights Jr P.S.,101,92.1,2,93.1,2,43.79658396,-79.29051029
410,Macklin P.S.,340,95,0.6,95.9,0.6,43.82199191,-79.26769422
411,Madonna Catholic S.S.,634,84.2,0.2,92.9,0.2,43.72951508,-79.4774808
412,Malvern C.I.,1107,85.2,2.8,96.1,2.8,43.68291415,-79.29293632
413,Malvern Jr P.S.,236,96.2,0.8,95.8,0.8,43.79783946,-79.23325194
414,Manhattan Park Jr P.S.,65,90.8,3.1,89.2,3.1,43.753354,-79.29530112
415,Maple Leaf P.S.,160,91.3,4.4,93.1,4.4,43.71485064,-79.49027522
416,Maplewood High School,93,86,5.4,94.6,4.3,43.75889785,-79.19489463
417,Marc Garneau C.I.,1629,83.2,0.6,95,0.6,43.70897569,-79.33496795
418,Market Lane Jr & Sr P.S.,191,91.6,1.6,92.1,1.6,43.64985038,-79.3647414
419,Marshall McLuhan Catholic S.S.,1032,87.3,0.7,96.1,0.7,43.70760025,-79.40973516
420,Martingrove C.I.,1088,86.8,0.9,97.1,0.9,43.67338277,-79.56073964
421,Mary Shadd P.S.,310,94.5,0.6,96.1,0.6,43.8143957,-79.21832404
422,Mary Ward Catholic S.S.,1002,87.5,1.2,96.9,1.1,43.81575342,-79.30394007
423,Maryvale P.S.,180,89.4,2.2,92.8,1.7,43.75467112,-79.30791157
424,Mason Road Jr P.S.,209,89.5,0.5,90.4,0.5,43.73925479,-79.22568299
425,Maurice Cody Jr P.S.,374,96,2.1,96.3,2.1,43.70481966,-79.3774482
426,McKee P.S.,427,97.2,0.9,97.9,0.9,43.77292432,-79.41664769
427,McMurrich Jr P.S.,350,92.9,4,93.1,4,43.67807637,-79.43106195
428,Meadowvale P.S.,177,91,1.7,96,1.7,43.79551101,-79.16406818
429,Melody Village Jr School,124,99.2,0.8,97.6,0.8,43.73813475,-79.59484258
430,Michael Power/St Joseph H.S.,1818,84.6,2,95.5,2,43.65928999,-79.58198408
431,Military Trail P.S.,319,90.3,0.6,91.2,0.6,43.78911549,-79.19711697
432,Mill Valley Jr School,83,92.8,7.2,92.8,7.2,43.64418939,-79.58697157
433,Milliken P.S.,184,96.2,1.6,96.7,1.6,43.81658655,-79.28849695
434,Millwood Jr School,241,97.5,2.1,97.5,2.1,43.63336228,-79.57711952
435,Milne Valley Middle School,575,89.4,1.6,93.7,1.6,43.74720205,-79.32670912
436,Monarch Park C.I.,775,86.8,2.3,96,2.3,43.67928073,-79.32277189
437,Monsignor Fraser College - Alternate Study,106,82.1,1.9,95.3,1.9,43.66979946,-79.37715337
438,Monsignor Fraser College - Isabella,14,42.9,7.1,71.4,7.1,43.66979946,-79.37715337
439,Monsignor Fraser College - Midland,16,87.5,0,100,0,43.80106916,-79.28571749
440,Monsignor Fraser College - Midland North,28,89.3,0,96.4,0,43.80106916,-79.28571749
441,Monsignor Fraser College - Midtown,26,69.2,0,96.2,0,43.706595,-79.39996075
442,Monsignor Fraser College - Norfinch,73,80.8,0,93.2,0,43.75780953,-79.52704295
443,Monsignor Fraser College - Northeast,64,78.1,0,92.2,0,43.8218115,-79.27033145
444,Monsignor Fraser College - Southwest,99,75.8,1,94.9,1,43.66613477,-79.45644834
445,Monsignor Fraser College - St. Martin,16,62.5,0,100,0,43.66717452,-79.36442585
446,Monsignor John Corrigan C.S.,158,87.3,0.6,88,0.6,43.75157005,-79.60501369
447,Monsignor Percy Johnson Catholic H.S.,936,84.9,0.9,94.7,0.9,43.72069467,-79.57201689
448,Montrose Jr P.S.,112,99.1,0.9,98.2,0.9,43.65868159,-79.41884372
449,Morrish P.S.,235,94.9,0.4,97.9,0.4,43.79318792,-79.17927003
450,Morse Street Jr P.S.,323,96.6,1.9,96.9,1.9,43.66016692,-79.34016669
451,Mother Cabrini C.S.,136,87.5,2.2,89,2.2,43.66377811,-79.58630809
452,Mountview Alternative Jr,63,93.7,4.8,93.7,4.8,43.66353227,-79.48981138
453,Muirhead P.S.,97,96.9,2.1,90.7,2.1,43.77888402,-79.33745018
454,Native Learning Centre,15,66.7,6.7,86.7,6.7,43.66360843,-79.37917817
455,Nativity of Our Lord C.S.,322,86,2.8,87.6,2.8,43.65312324,-79.57537018
456,Neil McNeil High School,822,87.1,1.7,96.4,1.6,43.67923485,-79.28309716
457,Nelson Mandela Park P.S.,234,94,2.1,94.9,2.1,43.65835275,-79.36060291
458,Newtonbrook S.S.,749,80.6,1.7,89.9,1.7,43.79354914,-79.42624259
459,Niagara Street Jr P.S.,125,92,1.6,96.8,1.6,43.64393746,-79.40825293
460,Norman Cook Jr P.S.,83,95.2,1.2,96.4,1.2,43.71903913,-79.25779513
461,Norman Ingram P.S.,109,92.7,3.7,94.5,3.7,43.73995245,-79.34960615
462,Norseman JMS,581,92.9,2.1,96.7,2.1,43.63430526,-79.51632975
463,North Agincourt Jr P.S.,267,97.4,1.1,98.1,1.1,43.79645371,-79.27621279
464,North Albion C.I.,757,85.1,0.1,98,0,43.74714157,-79.58514278
465,North Bendale Jr P.S.,75,90.7,2.7,94.7,2.7,43.77045371,-79.24763647
466,North Bridlewood Jr P.S.,136,94.1,1.5,95.6,1.5,43.78891636,-79.31858708
467,North East Year Round Alternative,29,86.2,3.4,93.1,3.4,43.7842923,-79.35049619
468,North Kipling JMS,469,91.9,0.6,94.5,0.6,43.75176209,-79.58489255
469,North Preparatory Jr P.S.,122,95.1,0.8,96.7,0.8,43.70548233,-79.42038503
470,North Toronto C.I.,1286,86.2,1.2,97,1.2,43.70969341,-79.39723033
471,North West Year Round Alternative,14,71.4,0,100,0,43.78456549,-79.44100625
472,Northern S.S.,1678,85.3,3.1,95.8,3,43.7105371,-79.3901643
473,Northlea EMS,560,95.9,1.6,97.7,1.6,43.71462362,-79.37017345
474,Northview Heights S.S.,1490,84.6,1.1,93.7,1.1,43.77442921,-79.44632478
475,Norway Jr P.S.,185,94.6,3.8,96.2,3.8,43.67627905,-79.3066687
476,Notre Dame Catholic H.S.,656,84.6,0.3,96.5,0.3,43.68068578,-79.29313138
477,Oakdale Park Middle School,417,91.6,0.7,95.2,0.7,43.74746507,-79.51199206
478,Oakridge Jr P.S.,265,88.7,0.8,86,0.8,43.69496075,-79.28254283
479,Oakwood C.I.,359,83.3,3.3,94.7,3.3,43.67865589,-79.43637901
480,Oasis Alternative,72,75,9.7,88.9,9.7,43.64572203,-79.39822258
481,O'Connor P.S.,80,86.3,0,91.3,0,43.71650733,-79.30415213
482,Ogden Jr P.S.,116,96.6,0.9,94.8,0.9,43.65001362,-79.39512686
483,Orde Street Jr P.S.,243,96.3,0.8,92.6,0.8,43.65862749,-79.39226008
484,Oriole Park Jr P.S.,156,96.2,3.2,95.5,3.2,43.70257155,-79.40969328
485,Ossington/Old Orchard Jr P.S.,188,95.7,3.2,95.2,3.2,43.65270767,-79.42259976
486,St Joachim C.S.,217,91.7,0,92.6,0,43.71282528,-79.27514407
487,Our Lady of Fatima C.S.,558,85.8,1.8,86.7,1.8,43.71015994,-79.29361584
488,Our Lady of Grace C.S.,194,87.1,0.5,93.3,0.5,43.81169988,-79.27408966
489,Our Lady of Guadalupe C.S.,121,83.5,0.8,84.3,0.8,43.78953291,-79.35496656
490,Our Lady of Lourdes C.S.,383,86.7,0,87.5,0,43.66604349,-79.37469556
491,Our Lady of Peace C.S.,458,88.9,3.3,93,3.3,43.64651225,-79.54107815
492,Our Lady of Perpetual Help C.S.,244,93,0.4,92.2,0.4,43.68729849,-79.38330488
493,Our Lady of Sorrows C.S.,577,90.5,2.4,92.5,2.4,43.64801452,-79.51832504
494,Our Lady of The Assumption C.S.,284,77.8,1.1,75,1.1,43.71618939,-79.431283
495,Our Lady of Victory C.S.,485,86.6,0.2,88.7,0.2,43.68332113,-79.49031478
496,Our Lady of Wisdom C.S.,236,88.1,3.8,91.1,3.8,43.76210878,-79.30818873
497,Owen P.S.,331,95.2,1.5,94.9,1.5,43.74905619,-79.3925162
498,Palmerston Avenue Jr P.S.,269,92.9,4.5,92.2,4.5,43.66814491,-79.41520495
499,Pape Avenue Jr P.S.,230,96.5,2.2,97.4,2.2,43.67035189,-79.34189362
500,Park Lane P.S.,47,55.3,0,74.5,0,43.72892362,-79.36682006
501,Park Lawn JMS,383,92.7,3.7,93.5,3.7,43.63770661,-79.49644692
502,Parkdale C.I.,493,84.8,1.4,95.7,1.4,43.63965751,-79.43606851
503,Parkdale Jr & Sr P.S.,334,87.1,3.3,86.2,3.3,43.64318729,-79.43679858
504,Parkfield Jr School,152,94.7,2,96.1,1.3,43.6820942,-79.56976738
505,Parkside Elementary,101,94.1,0,96,0,43.69985449,-79.31648307
506,Parkview Alternative,43,88.4,4.7,95.3,4.7,43.76737728,-79.31300261
507,Pauline Johnson Jr P.S.,167,92.8,0.6,93.4,0.6,43.78512986,-79.3035713
508,Pauline Jr P.S.,164,90.2,3,90.9,3,43.66248911,-79.439143670000007
509,Pelmo Park P.S.,166,91.6,3,90.4,3,43.71205673,-79.51811616
510,Percy Williams Jr P.S.,197,98.5,0,98.5,0,43.81266688,-79.26565853
511,Perth Avenue Jr P.S.,175,92,4,90.3,4,43.66283136,-79.45241969
512,Pierre Laporte Middle School,398,88.2,0.8,91.7,0.8,43.72507453,-79.49212431
513,Pineway P.S.,76,90.8,1.3,89.5,1.3,43.7957696,-79.37472553
514,Pleasant P.S.,272,95.2,3.3,93,3.3,43.79006404,-79.43461296
515,Pleasant View Middle School,313,93.9,1.3,93.6,1.3,43.78748776,-79.33390321
516,Pope Francis C.S.,184,89.1,0,91.3,0,43.65163137,-79.42101618
517,Poplar Road Jr P.S.,159,97.5,1.3,98.1,1.3,43.75366045,-79.18747895
518,Port Royal P.S.,243,95.5,0.8,96.3,0.8,43.8246324,-79.28996675
519,Portage Trail Community Jr School,480,91.9,2.9,92.3,2.9,43.69229618,-79.50976688
520,Precious Blood C.S.,327,85.6,0.9,87.5,0.9,43.73935643,-79.30223742
521,Presteign Heights Elementary,135,94.8,4.4,94.1,4.4,43.70554334,-79.31719398
522,Prince of Peace C.S.,230,90.9,0.9,93,0.9,43.82666428,-79.28015052
523,Princess Margaret Jr School,209,89.5,1.4,90.4,1.9,43.67130697,-79.5591424
524,Queen Alexandra Middle School,342,89.5,2.9,95,2.9,43.6611761,-79.35051827
525,Queen Victoria Jr P.S.,586,89.4,3.1,92.5,3.1,43.63625894,-79.43473265
526,Quest Alternative Sr,66,86.4,7.6,89.4,7.6,43.67046046,-79.35212966
527,R H King Academy,1229,87.2,0.7,98,0.6,43.72262234,-79.23745003
528,R H McGregor Elementary,409,96.3,1.2,96.1,1.2,43.68999526,-79.32713574
529,R J Lang EMS,323,89.8,1.5,90.1,1.5,43.78348538,-79.42651048
530,Ranchdale P.S.,124,96,0,96.8,0,43.752458,-79.32329144
531,Rawlinson Community School,501,93,2,95,2,43.68397707,-79.44004342
532,Regal Road Jr P.S.,357,93.3,2.2,93.3,2.2,43.67377517,-79.44006329
533,Regent Heights P.S.,371,91.4,0.5,91.1,0.5,43.70708131,-79.2889046
534,Regina Mundi C.S.,280,88.2,1.1,91.4,1.1,43.7098151,-79.45958643
535,Rene Gordon Health & Wellness Academy,161,95,1.2,94.4,1.2,43.7616437,-79.3403815
536,Richview C.I.,1035,84.8,2.6,96.8,2.6,43.67886863,-79.53891237
537,Rippleton P.S.,161,97.5,1.2,96.9,1.2,43.74090484,-79.36012047
538,Rivercrest Jr School,118,94.1,2.5,91.5,2.5,43.72971618,-79.56951774
539,Riverdale C.I.,1198,87.1,2.9,96.3,2.8,43.6700477,-79.33485982
540,Robert Service Sr P.S.,166,88,0,97.6,0,43.72902515,-79.25117818
541,Rockcliffe Middle School,296,88.9,2.4,95.3,2.4,43.67401618,-79.48843523
542,Rockford P.S.,430,93.7,1.6,94.2,1.6,43.78622535,-79.45230102
543,Roden P.S.,284,90.1,2.1,94.4,2.1,43.67387327,-79.32307649
544,Rolph Road Elementary,235,97.4,1.7,97.4,1.7,43.69978359,-79.3662514
545,Rose Avenue Jr P.S.,371,95.7,0,95.1,0,43.67016508,-79.3725055
546,Rosedale Heights School of The Arts,1045,80.9,8.2,89.6,8.2,43.67393966,-79.36601634
547,Rosedale Jr P.S.,151,98.7,0,98.7,0,43.67765573,-79.38168603
548,Roselands Jr P.S.,200,95.5,2.5,94,2.5,43.68122679,-79.499061
549,Rosethorn Jr School,258,94.6,5,93.8,5,43.65992057,-79.53948098
550,Rouge Valley P.S.,163,95.1,0.6,98.2,0.6,43.79938626,-79.15128739
551,Roywood P.S.,104,92.3,2.9,91.3,2.9,43.76472407,-79.32177318
552,Runnymede Jr & Sr P.S.,707,95.5,1.1,97.9,1.3,43.655965,-79.477517
553,Ryerson Community School,309,81.9,1.9,85.1,1.9,43.65122054,-79.40263666
554,Sacred Heart C.S.,194,84.5,1,88.7,1,43.812184,-79.220144
555,Samuel Hearne P.S.,372,87.9,0.5,90.3,0.5,43.69523843,-79.28367519
556,Santa Maria C.S.,161,90.1,0,91.3,0,43.68097329,-79.47768089
557,Satec at W A Porter C.I.,1181,88,0.3,96.4,0.3,43.71659346,-79.28726952
558,Scarborough Village P.S.,140,91.4,0,95.7,0,43.74411936,-79.22207179
559,School of Experiential Education,45,77.8,2.2,97.8,2.2,43.70163502,-79.54639098
560,School of Life Experience,28,92.9,0,96.4,0,43.67928073,-79.32277189
561,Second Street JMS,351,93.7,2.3,94.3,2.3,43.60366842,-79.49976626
562,Secord Elementary,327,93,2.4,93.9,2.4,43.6923789,-79.30183124
563,Seed Alternative,31,80.6,6.5,90.3,6.5,43.66207775,-79.34868633
564,Selwyn Elementary,163,95.7,3.1,96.3,3.1,43.70843965,-79.30632594
565,Senator O'Connor College,1321,85.5,1.3,94.7,1.3,43.75082727,-79.31736855
566,Seneca Hill P.S.,195,99,0,98.5,0,43.79087042,-79.35029699
567,Seneca School,56,91.1,3.6,94.6,3.6,43.65093395,-79.58254583
568,Seventh Street Jr School,118,94.9,3.4,95.8,3.4,43.59991069,-79.50463054
569,Shaughnessy P.S.,143,97.2,0,97.9,0,43.7703833,-79.35168206
570,Sheppard P.S.,99,98,1,94.9,1,43.74542436,-79.48826066
571,Shirley Street Jr P.S.,111,91.9,8.1,91.9,8.1,43.64852424,-79.43672217
572,Shoreham P.S.,146,90.4,1.4,91.1,1.4,43.76879954,-79.51738797
573,Silver Springs P.S.,250,96.4,0,96,0,43.80442951,-79.30237697
574,Silverthorn C.I.,834,82,2.4,95.2,2.4,43.63783591,-79.58038855
575,Silverthorn Community School,225,92.9,3.1,93.8,3.1,43.68724942,-79.46941511
576,Sir Adam Beck Jr School,244,94.3,4.1,94.7,4.1,43.60160187,-79.54816183
577,Sir Alexander Mackenzie Sr P.S.,396,89.9,1.3,97.5,1.3,43.70106136,-79.3710115
578,Sir Ernest Macmillan Sr P.S.,370,89.5,1.4,96.8,1.4,43.80687627,-79.3281933
579,Sir John A Macdonald C.I.,1094,85.7,1.5,95.4,1.3,43.78707736,-79.32367051
580,Sir Oliver Mowat C.I.,1048,86.5,2,97.1,2,43.77930193,-79.14223832
581,Sir Samuel B Steele Jr P.S.,234,97,0.9,97,0.9,43.80665071,-79.32744196
582,Sir Wilfrid Laurier C.I.,1319,87.2,1.1,97.3,1.1,43.7470335,-79.19699148
583,Sir William Osler H.S.,110,87.3,0.9,93.6,0.9,43.79756649,-79.28740133
584,Sloane P.S.,144,95.8,0,96.5,0,43.73121223,-79.31033966
585,Smithfield Middle School,631,93.5,0.3,98.1,0.3,43.75001113,-79.59575188
586,South East Year Round Alternative,27,92.6,0,100,0,43.72810107,-79.25668865
587,Spectrum Alternative Sr,60,88.3,8.3,91.7,8.3,43.69927642,-79.39489644
588,Sprucecourt Jr P.S.,194,92.8,1,96.9,1,43.66448601,-79.36382992
589,St Agatha C.S.,282,89,1.1,91.5,1.1,43.7236402,-79.22982087
590,St Agnes C.S.,241,81.3,2.1,81.3,2.1,43.79857548,-79.40260425
591,St Aidan C.S.,220,88.6,0.5,91.8,0.5,43.79737949,-79.30936652
592,St Albert C.S.,317,89.3,0.9,91.5,0.9,43.74360886,-79.26136635
593,St Alphonsus C.S.,165,84.2,1.2,86.7,1.2,43.68291369,-79.43220644
594,St Ambrose C.S.,258,85.7,3.9,88.4,3.9,43.6083701,-79.55012287
595,St Andre C.S.,419,86.2,0,88.1,0,43.72399451,-79.51763291
596,St Andrew C.S.,550,79.3,0.2,86.4,0.2,43.74493114,-79.58238178
597,St Andrews Middle School,393,93.1,2.3,94.9,2.3,43.75159735,-79.39032976
598,St Andrews P.S.,222,96.4,0,98.2,0,43.76664525,-79.25479628
599,St Angela C.S.,397,77.6,0.5,81.1,0.5,43.75338681,-79.59579099
600,St Anselm C.S.,269,89.2,2.6,91.1,2.6,43.70539439,-79.37159516
601,St Anthony C.S.,242,81.8,2.5,86,2.5,43.66370352,-79.43496884
602,St Antoine Daniel C.S.,297,81.5,0.3,82.8,0.3,43.77701083,-79.42984477
603,St Augustine C.S.,422,82.2,0.2,84.6,0.2,43.76823652,-79.52506429
604,St Barbara C.S.,265,84.9,1.1,84.5,1.1,43.76231218,-79.21875843
605,St Barnabas C.S.,207,94.2,1.4,93.2,1.4,43.79724122,-79.22851192
606,St Bartholomew C.S.,67,86.6,4.5,86.6,4.5,43.78960341,-79.27161837
607,St Bede C.S.,117,84.6,0.9,90.6,0.9,43.81797891,-79.2065477
608,St Benedict C.S.,436,86.5,0.9,89.4,0.7,43.72069467,-79.57201689
609,St Bernard C.S.,478,86.6,1,88.7,1,43.70250622,-79.50060787
610,St Bonaventure C.S.,435,90.8,1.1,93.1,1.1,43.73303235,-79.35625364
611,St Boniface C.S.,259,86.1,0,86.5,0,43.74092025,-79.21997302
612,St Brendan C.S.,409,90.2,0.5,94.4,0.5,43.78254695,-79.14925055
613,St Brigid C.S.,425,84,1.9,88,1.9,43.68694895,-79.31689929
614,St Bruno / St Raymond C.S.,158,80.4,5.7,84.8,5.1,43.67323995,-79.42706293
615,St Catherine C.S.,78,80.8,3.8,87.2,3.8,43.74233527,-79.32473908
616,St Cecilia C.S.,463,92,2.2,94.2,2.2,43.66142319,-79.47283128
617,St Charles C.S.,193,91.2,1,91.2,1,43.71328189,-79.45135069
618,St Charles Garnier C.S.,314,85.4,0.6,86.6,0.6,43.76259569,-79.51814172
619,St Clare C.S.,300,87.3,1.3,89.7,1.3,43.67941147,-79.44155159
620,St Clement C.S.,329,90.9,2.1,93.3,2.1,43.63224729,-79.57380819
621,St Columba C.S.,169,81.1,3.6,82.2,3.6,43.80619345,-79.21182741
622,St Conrad C.S.,426,89.9,0.7,90.6,0.7,43.73008526,-79.49345429
623,St Cyril C.S.,217,92.2,0.9,93.5,0.9,43.77705227,-79.41670118
624,St Demetrius C.S.,193,83.9,6.2,87.6,6.2,43.68465421,-79.52196594
625,St Denis C.S.,215,89.3,3.3,90.7,3.3,43.67299835,-79.28990762
626,St Dominic Savio C.S.,193,90.2,1,89.6,1,43.79828437,-79.15602387
627,St Dorothy C.S.,239,87.9,0.8,90,0.8,43.7314927,-79.59173973
628,St Dunstan C.S.,185,81.1,1.1,82.7,1.1,43.6934292,-79.2842392
629,St Edmund Campion C.S.,185,91.9,0,90.8,0,43.78803168,-79.21609072
630,St Edward C.S.,336,90.8,1.5,90.8,1.5,43.75395182,-79.41340608
631,St Elizabeth C.S.,167,79.6,2.4,86.2,2.4,43.6349427,-79.55745671
632,St Elizabeth Seton C.S.,116,89.7,1.7,94,1.7,43.78895124,-79.24670583
633,St Eugene C.S.,263,87.5,2.7,89.7,2.7,43.69260281,-79.53749174
634,St Fidelis C.S.,438,88.4,3,89.7,3,43.71728752,-79.48494849
635,St Florence C.S.,141,82.3,1.4,87.9,1.4,43.79691679,-79.20936572
636,St Francis De Sales C.S.,334,86.8,0.3,87.7,0.3,43.75413291,-79.51912451
637,St Francis of Assisi C.S.,123,87.8,4.1,93.5,4.1,43.65619987,-79.41462812
638,St Francis Xavier C.S.,372,85.2,0.5,87.6,0.5,43.71084951,-79.48340706
639,St Gabriel C.S.,227,76.7,1.3,78,1.3,43.7693579,-79.39134138
640,St Gabriel Lalemant C.S.,105,90.5,0,95.2,0,43.81270363,-79.22672748
641,St George's Jr,113,93.8,1.8,94.7,1.8,43.67260051,-79.54171219
642,St Gerald C.S.,212,83,0.9,83,0.9,43.78071327,-79.32637982
643,St Gregory C.S.,530,90.4,3,89.6,3,43.65963894,-79.54502121
644,St Helen C.S.,289,90.3,1,93.1,1,43.65208457,-79.43615633
645,St Henry C.S.,179,88.3,0.6,89.9,0.6,43.81364309,-79.32831621
646,St Ignatius of Loyola C.S.,91,87.9,5.5,89,5.5,43.80357849,-79.26541329
647,St Isaac Jogues C.S.,259,84.2,0.8,85.3,0.8,43.76232534,-79.32196017
648,St James C.S.,131,86.3,0.8,87.8,0.8,43.66467369,-79.49539788
649,St Jane Frances C.S.,517,87.8,0.4,89.7,0.4,43.74214816,-79.51316565
650,St Jean De Brebeuf C.S.,159,93.1,0.6,92.5,0.6,43.80251384,-79.17404098
651,St Jerome C.S.,372,84.4,0.3,88.7,0.3,43.7488344,-79.48854188
652,St John Bosco C.S.,238,90.3,0,90.3,0,43.68871579,-79.45055774
653,St John C.S.,336,89.9,0.9,93.5,0.9,43.68022438,-79.29456867
654,St John The Evangelist C.S.,306,85.6,0,87.6,0,43.71886369,-79.51022704
655,St John Vianney C.S.,282,86.9,2.5,86.2,2.5,43.73797591,-79.55384621
656,St Josaphat C.S.,108,77.8,7.4,76.9,7.4,43.59929856,-79.50905953
657,St Joseph C.S.,151,94,0.7,93.4,0.7,43.66580807,-79.33189055
658,St Joseph's College,758,85,0.9,92.5,0.9,43.66443686,-79.38886466
659,St Josephs Morrow Park H.S.,459,81.3,0.4,88.5,0.4,43.79713693,-79.39208061
660,St Jude C.S.,542,86.5,0,91,0,43.74048448,-79.53925654
661,St Kevin C.S.,180,88.3,1.1,90.6,1.1,43.75070676,-79.30585727
662,St Lawrence C.S.,329,90.9,0.6,92.1,0.6,43.74930639,-79.27992084
663,St Leo C.S.,200,84,2,86.5,2,43.61427999,-79.49628845
664,St Louis C.S.,145,90.3,3.4,91,3.4,43.62574512,-79.50095538
665,St Luigi C.S.,99,84.8,0,84.8,0,43.66283136,-79.45241969
666,St Malachy C.S.,214,86.9,0.9,90.7,0.9,43.77102043,-79.16663443
667,St Marcellus C.S.,286,81.1,1.7,82.9,1.7,43.67979194,-79.55422495
668,St Margaret C.S.,474,87.8,0.4,85,0.4,43.72897291,-79.44135545
669,St Margaret's P.S.,199,89.4,2,93.5,2,43.76826718,-79.19594342
670,St Marguerite Bourgeoys C.S.,69,88.4,0,91.3,0,43.80910932,-79.28561349
671,St Maria Goretti C.S.,717,89.7,0.3,90.8,0.3,43.72983532,-79.26592211
672,St Mark C.S.,144,83.3,4.9,84.7,4.9,43.63449985,-79.49019751
673,St Martha C.S.,162,84.6,3.7,87,3.7,43.741068,-79.50232466
674,St Martin De Porres C.S.,302,82.8,0,87.4,0,43.76712859,-79.18682181
675,St Mary C.S.,219,87.7,1.4,90,1.4,43.64584381,-79.40463497
676,St Mary of The Angels C.S.,167,93.4,0,93.4,0,43.67211886,-79.44029271
677,St Mary's Catholic S.S.,650,76.9,0.8,87.8,0.8,43.6577936,-79.43215429
678,St Matthew C.S.,378,93.1,0.5,94.7,0.5,43.68067023,-79.46794288
679,St Matthias C.S.,202,81.2,2,83.2,2,43.78489022,-79.35945563
680,St Maurice C.S.,204,85.8,0.5,87.7,0.5,43.69781276,-79.55393287
681,St Michael C.S.,129,82.9,1.6,90.7,1.6,43.64786941,-79.36961971
682,St Michael's Choir Jr School,169,92.9,3,94.1,3,43.65544574,-79.37768726
683,St Michael's Choir Sr School,88,83,2.3,95.5,2.3,43.65544574,-79.37768726
684,St Monica C.S.,223,84.8,0.9,90.1,0.9,43.71015928,-79.3976277
685,St Nicholas C.S.,273,89,1.1,90.1,1.1,43.74764379,-79.23285549
686,St Nicholas of Bari C.S.,454,91.9,0.7,92.1,0.7,43.68282437,-79.4604932
687,St Norbert C.S.,243,88.1,1.6,88.5,1.6,43.73410029,-79.46450004
688,St Oscar Romero Catholic S.S.,627,84.1,0.2,93.9,0.2,43.68033288,-79.48079681
689,St Paschal Baylon C.S.,522,84.7,0.4,82.6,0.4,43.79220069,-79.43132189
690,St Patrick Catholic S.S.,728,83.8,0.8,90.4,0.8,43.67845032,-79.32800364
691,St Paul C.S.,123,83.7,0,83.7,0,43.65548894,-79.36173419
692,St Pius X C.S.,373,89.5,1.9,90.9,1.9,43.65127722,-79.48471334
693,St Raphael C.S.,367,86.1,1.1,89.4,1.1,43.72856134,-79.48848695
694,St Rene Goupil C.S.,95,57.9,0,57.9,0,43.81934836,-79.28830312
695,St Richard C.S.,302,89.1,0.7,92.4,0.7,43.76837294,-79.24028339
696,St Rita C.S.,66,83.3,1.5,90.9,1.5,43.66613477,-79.45644834
697,St Robert C.S.,441,89.6,0.5,87.5,0.5,43.74909669,-79.44772492
698,St Roch C.S.,253,88.9,0,92.9,0,43.75370797,-79.56674972
699,St Rose of Lima C.S.,325,89.5,0.3,88.6,0.3,43.75748239,-79.24055992
700,St Sebastian C.S.,152,92.8,3.3,94.1,3.3,43.66276615,-79.43992647
701,St Simon C.S.,384,88.5,0.5,90.4,0.5,43.71890861,-79.53298735
702,St Stephen C.S.,294,88.8,0.3,88.1,0.3,43.7222273,-79.55211379
703,St Sylvester C.S.,130,88.5,2.3,90,2.3,43.80442951,-79.30237697
704,St Teresa C.S.,182,81.9,1.1,87.4,1.1,43.59929856,-79.50905953
705,St Theresa Shrine C.S.,157,94.3,0,94.9,0,43.71563786,-79.24247559
706,St Thomas Aquinas C.S.,401,84.8,0,88.8,0,43.69588971,-79.44574378
707,St Thomas More C.S.,235,86.4,0.4,88.9,0.4,43.77870333,-79.2254549
708,St Timothy C.S.,456,88.8,1.1,88.8,1.1,43.77515317,-79.35136251
709,St Ursula C.S.,184,92.9,0.5,93.5,0.5,43.75082107,-79.19998668
710,St Victor C.S.,235,89.8,0.4,93.2,0.4,43.76905716,-79.25910537
711,St Vincent de Paul C.S.,244,89.8,2.9,89.8,2.9,43.64682927,-79.44792302
712,St Wilfrid C.S.,472,80.5,0.4,83.5,0.4,43.75991688,-79.50255431
713,St. Basil The Great College,1258,86.2,0.7,95.1,0.7,43.72716809,-79.53345069
714,St. John Paul II Catholic S.S.,1276,86.8,0.5,97.2,0.5,43.78911549,-79.19711697
715,St. John XXIII C.S.,305,80.7,0.7,78.4,0.7,43.71245397,-79.32984789
716,St. Kateri Tekakwitha C.S.,213,78.9,2.3,78.4,2.3,43.78581971,-79.33805159
717,St. Mother Teresa Catholic Academy,413,83.5,1.5,90.1,1.5,43.80724295,-79.21778942
718,Stanley P.S.,209,94.7,1.4,95.2,1.4,43.74183118,-79.51782704
719,Steelesview P.S.,200,98.5,1,97.5,1,43.80266609,-79.38563286
720,Stella Maris C.S.,263,91.6,0.8,92.8,0.8,43.67969136,-79.44452074
721,Stephen Leacock C.I.,511,82.2,0.6,93.2,0.6,43.78520343,-79.30085689
722,Stilecroft P.S.,138,96.4,0.7,94.2,0.7,43.75105582,-79.4932051
723,Sts Cosmas and Damian C.S.,261,87.7,0.8,87.7,0.8,43.70659006,-79.44556836
724,Subway Academy I,21,71.4,9.5,81,9.5,43.67914023,-79.33663606
725,Subway Academy II,19,78.9,0,78.9,0,43.65576524,-79.3957051
726,Summit Heights P.S.,274,97.4,2.6,96.7,2.6,43.74132177,-79.43003694
727,Sunny View Jr & Sr P.S.,67,83.6,3,86.6,3,43.71984376,-79.38733761
728,Sunnylea Jr School,178,96.6,2.8,96.6,2.8,43.64244399,-79.50687324
729,Swansea Jr & Sr P.S.,642,94.4,3.3,96,3.3,43.64345739,-79.47708504
730,Tam O'Shanter Jr P.S.,202,97,0.5,95.5,0.5,43.78507164,-79.29766169
731,Taylor Creek P.S.,275,96.4,0.4,98.5,0.4,43.70003776,-79.27728774
732,Tecumseh Senior P.S.,263,88.6,0.8,96.2,0.8,43.76365832,-79.21697024
733,Terraview-Willowfield P.S.,202,93.1,3.5,93.6,3.5,43.76378291,-79.30857274
734,Terry Fox P.S.,282,96.8,0,98.9,0,43.81589936,-79.3186863
735,The Divine Infant C.S.,82,87.8,1.2,90.2,1.2,43.8218115,-79.27033145
736,The Elms JMS,287,93,1.7,94.8,1.7,43.7222273,-79.55211379
737,The Grove Community School,76,80.3,19.7,80.3,19.7,43.64602125,-79.42884725
738,The Holy Trinity C.S.,317,82,2.2,84.2,2.2,43.59514135,-79.51653877
739,The Student School,22,77.3,4.5,95.5,4.5,43.6570501,-79.47413781
740,The Waterfront School,142,94.4,4.9,92.3,4.9,43.63574882,-79.39718759
741,Thistletown C.I.,441,82.8,1.4,97.1,0.9,43.72772656,-79.56245265
742,Thomas L Wells P.S.,396,96.2,0,99.2,0,43.8243707,-79.225979
743,Thorncliffe Park P.S.,1108,95.8,0.3,96,0.3,43.70539004,-79.34343676
744,Three Valleys P.S.,173,95.4,2.3,95.4,2.3,43.75081287,-79.33762032
745,Timberbank Jr P.S.,152,98,0.7,94.7,0.7,43.79147126,-79.30728539
746,Tom Longboat Jr P.S.,178,96.6,1.7,93.8,1.7,43.81044617,-79.23162697
747,Topcliff P.S.,210,96.7,0,98.6,0,43.75568467,-79.51065816
748,Transfiguration of Our Lord C.S.,320,87.2,1.9,91.3,1.9,43.69152126,-79.56287073
749,Tredway Woodsworth P.S.,587,94,1.4,95.9,1.2,43.76492505,-79.23510926
750,Tumpane P.S.,232,94.4,1.7,95.3,1.7,43.72659528,-79.5022551
751,Twentieth Street Jr School,94,89.4,5.3,90.4,5.3,43.59797715,-79.51993824
752,Ursula Franklin Academy,521,83.7,3.8,95.2,3.8,43.65651377,-79.47442738
753,Valley Park Middle School,964,90.2,0.4,91.2,0.4,43.71044059,-79.33587052
754,Valleyfield Jr School,208,89.4,1.9,91.3,1.9,43.69421576,-79.53821993
755,Venerable John Merlini C.S.,210,88.1,1,93.8,1,43.75648059,-79.57938356
756,Victoria Park C.I.,1173,86.9,0.9,96.2,0.9,43.75605934,-79.32146442
757,Victoria Park Elementary,92,98.9,0,100,0,43.71268918,-79.29815076
758,Victoria Village P.S.,132,89.4,4.5,90.2,4.5,43.73595942,-79.31418208
759,Vradenburg Jr P.S.,145,98.6,0,98.6,0,43.77434227,-79.3082863
760,Walter Perry Jr P.S.,189,89.9,1.6,93.1,1.6,43.73345613,-79.25124569
761,Warren Park Jr P.S.,111,87.4,6.3,87.4,6.3,43.66284277,-79.49943751
762,Wedgewood Jr School,240,96.3,1.3,98.3,1.3,43.64531695,-79.54625291
763,Wellesworth Jr School,96,87.5,3.1,88.5,3.1,43.65663735,-79.57671875
764,West End Alternative,49,81.6,8.2,89.8,8.2,43.66242998,-79.41983402
765,West Glen Jr School,98,93.9,5.1,89.8,4.1,43.65083041,-79.56028182
766,West Hill C.I.,631,83.8,1.4,95.7,1.4,43.77566843,-79.19058757
767,West Hill P.S.,150,90.7,2.7,90,2.7,43.77267961,-79.18688444
768,West Humber C.I.,1016,85.2,0.9,96.1,0.9,43.7309224,-79.58670539
769,West Humber JMS,341,94.1,0.3,93.5,0.3,43.72382622,-79.58007455
770,West Preparatory Jr P.S.,341,94.1,3.5,94.1,3.5,43.70274372,-79.43303504
771,West Rouge Jr P.S.,199,91.5,5.5,91.5,5.5,43.79561842,-79.13371592
772,Western Technical & Commercial School,975,80.3,3.8,93.7,3.7,43.65709149,-79.47458151
773,Westmount Jr School,123,89.4,2.4,93.5,2.4,43.68909613,-79.5196593
774,Weston C.I.,894,84.2,1.3,95.3,1.2,43.70381631,-79.50942175
775,Weston Memorial Jr P.S.,157,97.5,1.3,98.1,1.3,43.70597815,-79.50932994
776,Westview Centennial S.S.,763,81.3,0.7,93.8,0.7,43.75239763,-79.52509053
777,Westway Jr School,122,94.3,1.6,95.9,1.6,43.69082212,-79.54899331
778,Westwood Middle School,373,90.3,2.9,95.2,2.9,43.6866933,-79.35069605
779,Wexford Collegiate School for The Arts,1084,84,2.1,96.5,2,43.74615957,-79.30679538
780,Wexford P.S.,250,91.2,1.6,92,1.6,43.74019034,-79.30372732
781,White Haven Jr P.S.,350,94.9,1.1,96,1.1,43.78699541,-79.2480509
782,Whitney Jr P.S.,161,95.7,2.5,95.7,2.5,43.68716034,-79.37839727
783,Wilkinson Jr P.S.,316,97.8,1.6,96.8,1.6,43.68204163,-79.33748324
784,William Burgess Elementary,202,91.1,3,91.1,3,43.69192773,-79.34815772
785,William G Davis Jr P.S.,170,98.8,0,95.9,0,43.78504643,-79.13447437
786,William G Miller Jr P.S.,373,93.8,3.5,96,3.5,43.76851356,-79.16503401
787,William J McCordic School,52,46.2,3.8,84.6,3.8,43.69063184,-79.29898334
788,William Lyon Mackenzie C.I.,1377,84.9,2.5,94.6,2.5,43.75347096,-79.46189416
789,Williamson Road Jr P.S.,356,97.2,2,96.9,2,43.67451106,-79.2974698
790,Willow Park Jr P.S.,216,97.2,0,99.1,0,43.7611981,-79.20957854
791,Willowdale Middle School,542,92.6,2.2,94.6,2.2,43.76977522,-79.42608898
792,Wilmington Elementary,101,92.1,0,90.1,0,43.7685018,-79.46071631
793,Winchester Jr & Sr P.S.,343,91.3,3.2,93.3,3.2,43.6665481,-79.37110718
794,Windfields Middle School,661,91.8,2.9,95.2,2.7,43.75622535,-79.37098613
795,Winona Drive Senior P.S.,414,87.4,5.1,94.2,5.1,43.67807637,-79.43106195
796,Winston Churchill C.I.,517,87,1.5,96.5,1.5,43.74789747,-79.27814694
797,Withrow Avenue Jr P.S.,366,96.2,2.5,95.6,2.5,43.67046046,-79.35212966
798,Woburn C.I.,877,88.6,0.2,98.5,0.2,43.77816511,-79.22845859
799,Woburn Jr P.S.,225,98.7,0,98.7,0,43.7795028,-79.22700166
800,Woodbine Jr H.S.,347,89.6,1.4,90.2,1.4,43.7842923,-79.35049619
801,York Humber H.S.,122,86.9,4.1,93.4,4.1,43.6885692,-79.50617746
802,York Memorial C.I.,876,86.8,2.5,96.3,2.5,43.69027872,-79.4762398
803,York Mills C.I.,1200,86.3,1.3,97.2,1.3,43.75152905,-79.3735239
804,Yorkview P.S.,256,93.8,2.3,93,2.3,43.77257361,-79.43556642
805,Yorkwoods P.S.,224,88.4,0.9,91.5,0.9,43.75065984,-79.51388475
806,Zion Heights Jr H.S.,592,94.4,1,96.5,1,43.7979149,-79.37109724
