school_name,enrolled_population,dtp_coverage_rate_percent,dtp_religious_exemption_rate_percent,mmr_coverage_rate_percent,mmr_religious_exemption_rate_percent,lat,lng
A Y Jackson S.S.,1027,89,1.1,96.5,1.1,43.8052613,-79.36655529
Academie Alexandre-Dumas,129,86.8,1.6,89.1,1.6,43.76241881,-79.17976522
Adam Beck Jr P.S.,309,96.1,3.6,95.8,3.6,43.6831518,-79.28848789
Africentric Alternative School,77,71.4,20.8,72.7,20.8,43.74542436,-79.48826066
Agincourt C.I.,1241,87.3,1,98.1,1,43.78887384,-79.27890996
Agincourt Jr P.S.,141,99.3,0,98.6,0,43.788405590000004,-79.28117156
Agnes MacPhail P.S.,207,94.7,0,96.6,0,43.81926898,-79.27855339
Albert Campbell C.I.,1072,88.2,0.4,96.8,0.4,43.80901422,-79.27340657
Albion Heights JMS,294,93.9,0.7,97.3,1,43.73138826,-79.5943155
Alexander Muir/Gladstone Ave Jr & Sr P.S.,324,90.7,1.9,94.4,1.9,43.64602125,-79.42884725
Alexander Stirling P.S.,261,92.7,0.8,93.5,0.8,43.81165633,-79.20760594
Alexmuir Jr P.S.,226,96.9,0.4,98.2,0.4,43.80910932,-79.28561349
All Saints C.S.,643,87.4,3.3,91,3.3,43.68561792,-79.52716293
Allenby Jr P.S.,524,95.8,2.5,96.6,2.5,43.70943564,-79.41278773
Alpha Alternative Jr School,49,75.5,22.4,77.6,22.4,43.64572203,-79.39822258
Alpha II Alternative School,19,52.6,15.8,68.4,15.8,43.65955743,-79.43628284
Alternative Scarborough Education 1,15,86.7,0,100,0,43.76664525,-79.25479628
Alvin Curling P.S.,383,94.5,1.8,95.8,1.8,43.80849215,-79.1906336
Amesbury Middle School,268,92.2,1.1,95.9,1.1,43.70869774,-79.49401438
Ancaster P.S.,57,89.5,0,91.2,0,43.73286617,-79.46699263
Annette Street Jr & Sr P.S.,384,92.2,2.3,95.3,2.3,43.66142319,-79.47283128
Annunciation C.S.,253,87,2,89.7,2,43.75335089,-79.32126782
Anson Park P.S.,162,92.6,0.6,93.2,0.6,43.72620958,-79.2412876
Anson S Taylor Jr P.S.,122,100,0,100,0,43.80429198,-79.26156134
Arbor Glen P.S.,185,97.3,1.1,96.2,1.1,43.809486389999996,-79.35570944
Armour Heights P.S.,179,95.5,2.8,95,2.8,43.74091004,-79.41952228
Avondale Alternative Elementary,94,90.4,6.4,92.6,6.4,43.76021084,-79.40015609
Avondale P.S.,221,93.7,1.4,91.4,1.4,43.77649346,-79.38518674
Avondale Secondary Alternative,37,73,2.7,89.2,2.7,43.78630651,-79.41184315
Bala Avenue Community School,129,97.7,0,97.7,0,43.68946222,-79.49901227
Balmy Beach Community School,252,96,2.8,96.8,2.8,43.67643592,-79.28982694
Banting and Best P.S.,218,96.8,0,97.2,0,43.82666428,-79.28015052
Baycrest P.S.,81,87.7,8.6,85.2,8.6,43.72660578,-79.44425151
Bayview Middle School,443,94.6,0.5,95,0.5,43.77649346,-79.38518674
Beaches Alternative Jr,44,79.5,18.2,81.8,18.2,43.68261997,-79.29912788
Beaumonde Heights JMS,430,95.6,0.7,95.6,0.7,43.74295714,-79.57553054
Bedford Park P.S.,534,95.5,2.2,97,2.2,43.7278547,-79.40002762
Bellmere Jr P.S.,237,96.2,1.3,95.4,1.3,43.77196929,-79.23514688
Ben Heppner Vocal Music Academy,45,84.4,11.1,82.2,11.1,43.77515588,-79.21506873
Bendale Business & Technical Institute,285,84.2,2.8,96.5,2.8,43.75533976,-79.26474309
Bendale Jr P.S.,238,99.2,0,98.3,0,43.76256712,-79.24488026
Bennington Heights Elementary,129,99.2,0.8,98.4,0.8,43.69388246,-79.36955263
Berner Trail Jr P.S.,158,98.1,0,96.8,0,43.80156209,-79.22135257
Bessborough Dr. EMS,419,91.9,2.1,96.4,2.1,43.70721474,-79.370135200000007
Beverley Heights Middle School,434,85.5,1.6,91.7,1.6,43.7330246,-79.50477172
Beverley School,64,84.4,4.7,87.5,4.7,43.65576524,-79.3957051
Beverly Glen Jr P.S.,284,97.9,1.4,98.6,1.4,43.7986531,-79.32306763
Birch Cliff Heights P.S.,188,96.3,0.5,97.9,0.5,43.70174139,-79.25981662
Birch Cliff P.S.,270,92.6,2.2,95.9,2.2,43.69198872,-79.26556862
Birchmount Park C.I.,833,85.1,0.8,96.2,0.8,43.69775303,-79.25945453
Bishop Allen Academy Catholic S.S.,1540,85.1,2.3,93.6,2.2,43.63442792,-79.50446469
Bishop Marrocco/Thomas Merton Catholic S.S.,686,81,0.7,91.3,0.7,43.65585783,-79.45180771
Blacksmith P.S.,93,92.5,1.1,95.7,1.1,43.77116396,-79.52681069
Blake Street Jr P.S.,200,96,2.5,96.5,2.5,43.67180637,-79.33847625
Blantyre P.S.,194,93.8,3.6,93.8,3.6,43.68510008,-79.28386465
Blaydon P.S.,99,93.9,1,92.9,1,43.73535722,-79.48625614
Blessed Cardinal Newman C.S.,973,84.8,1,96.1,0.9,43.71492227,-79.24006423
Blessed Margherita of Citta Castello C.S.,241,90,0.4,93.8,0.4,43.74367247,-79.50791404
Blessed Pier Giorgio Frassati C.S.,224,90.2,1.3,91.1,1.3,43.8298752,-79.23273752
Blessed Pope Paul Vi C.S.,228,87.7,0,90.4,0,43.6740129,-79.45779303
Blessed Sacrament C.S.,400,89.3,2.8,91,2.8,43.72748161,-79.40399752
Blessed Trinity C.S.,158,89.2,1.9,90.5,1.9,43.78689754,-79.3918262
Bliss Carman Senior P.S.,281,85.8,1.8,93.6,1.8,43.73264896,-79.22560188
Bloor C.I.,834,87.4,2,96.6,2,43.65955743,-79.43628284
Bloordale Middle School,368,89.4,3.5,95.7,3.5,43.63914565,-79.57194653
Bloorlea Middle School,286,92.3,2.4,95.5,2.4,43.63752088,-79.55530155
Blythwood Jr P.S.,269,97,2.6,96.7,2.2,43.7199315,-79.38950571
Bowmore Road Jr & Sr P.S.,705,92.2,3.1,95.7,3,43.67606366,-79.31449172
Boys' Leadership Academy,47,89.4,2.1,93.6,2.1,43.7222273,-79.55211379
Braeburn Jr School,93,95.7,1.1,92.5,1.1,43.72802983,-79.54886381
Brebeuf College School,852,81.6,1.1,90.6,1.1,43.80151617,-79.40303816
Brian P.S.,206,93.7,2.4,93.7,2.4,43.78171952,-79.3318066
Briarcrest Jr School,189,95.8,3.2,95.8,2.6,43.66646577,-79.58007528
Bridlewood Jr P.S.,147,93.2,2,91.8,2,43.78079627,-79.31509539
Brimwood Boulevard Jr P.S.,234,97.9,0.4,98.7,0.4,43.81169988,-79.27408966
Broadacres Jr P.S.,236,94.9,3.4,95.8,3.4,43.64806672,-79.57202073
Broadlands P.S.,341,94.1,5.3,93.5,5.3,43.74590267,-79.3166278
Brock P.S.,204,90.7,2.9,93.6,2.9,43.65304969,-79.43784413
Brookhaven P.S.,216,97.2,0.9,97.7,0.9,43.7025063,-79.4956944
Brookmill Boulevard Jr P.S.,152,100,0,98,0,43.80122038,-79.314868
Brookside P.S.,532,94.2,0.2,97.6,0.2,43.83057174,-79.23360752
Brookview Middle School,421,88.1,0.5,93.1,0.5,43.76745724,-79.51724666
Brown Jr P.S.,362,92.8,2.2,94.2,2.2,43.68491292,-79.40131227
Bruce Jr P.S.,138,95.7,1.4,97.1,1.4,43.66103582,-79.33333606
Buchanan P.S.,226,92.9,2.7,94.2,2.7,43.75152561,-79.29989207
Burrows Hall Jr P.S.,138,96.4,0.7,98.6,0.7,43.79269796,-79.22881801
C D Farquharson Jr P.S.,225,97.3,0,99.1,0,43.78446716,-79.26610554
C R Marchant Middle School,419,92.1,2.4,92.6,2.4,43.70172148,-79.5129334
C W Jefferys C.I.,738,85.6,1.5,93.6,1.5,43.75767646,-79.50009059
Calico P.S.,162,85.8,3.1,89.5,3.1,43.73790618,-79.50359204
Cameron P.S.,177,97.2,2.3,96,2.3,43.7543607,-79.42125155
Canadian Martyrs C.S.,243,88.1,0.4,87.7,0.4,43.69819992,-79.31933864
Cardinal Carter Academy for The Arts,780,83.2,2.7,96.3,2.8,43.76409501,-79.40976158
Cardinal Leger C.S.,224,91.1,0.4,93.8,0.4,43.7930958,-79.17570791
Carleton Village Jr and Sr P.S.,227,94.3,2.6,93,2.6,43.67235281,-79.4600288
Cassandra P.S.,166,97.6,1.8,97.6,1.8,43.74842501,-79.32890148
Cedar Drive Jr P.S.,419,96.4,0.7,95.5,0.7,43.74585281,-79.21505094
Cedarbrae C.I.,1019,85,1.2,94.9,1.1,43.7563409,-79.22592486
Cedarbrook P.S.,391,95.4,2,96.2,2,43.74729339,-79.23019275
Cedarvale Community School,293,95.2,2.7,94.9,2.7,43.69613028,-79.43032756
Centennial Road Jr P.S.,161,97.5,2.5,96.9,2.5,43.78696228,-79.15002381
Central Etobicoke High School,80,73.8,8.8,88.8,8.8,43.67901856,-79.55548893
Central Technical School,724,82.5,3.2,92.3,2.9,43.66270411,-79.40980856
Central Toronto Academy,503,78.5,4,88.5,4,43.65797846,-79.42199861
Chalkfarm P.S.,139,89.9,1.4,90.6,1.4,43.72710643,-79.51439274
Chaminade College School,913,89.6,1,97.8,1,43.71009096,-79.49605946
Charles E Webster P.S.,311,95.8,1,96.8,1,43.69343444,-79.47509952
Charles G Fraser Jr P.S.,138,92.8,2.2,94.9,2.2,43.64853008,-79.40948363
Charles Gordon Senior P.S.,328,87.8,2.1,94.5,2.1,43.7464559,-79.2609587
Charles H Best Middle School,347,86.7,1.7,89.3,1.7,43.76744525,-79.45863024
Charlottetown Jr P.S.,260,95,4.6,95,4.6,43.78207023,-79.14220896
Chartland Jr P.S.,117,98.3,0.9,95.7,0.9,43.79961824,-79.2779223
Cherokee P.S.,112,93.8,3.6,94.6,3.6,43.79876275,-79.33861474
Chester Elementary School,277,96.8,1.8,96.8,1.8,43.68760238,-79.35170998
Chester Le Jr P.S.,87,87.4,5.7,88.5,5.7,43.79858771,-79.33109534
Chief Dan George P.S.,231,94.4,0.9,96.5,0.9,43.80272231,-79.16383466
Chine Drive P.S.,106,93.4,4.7,92.5,4.7,43.70998259,-79.24179689
Church Street Jr P.S.,188,90.4,1.1,90.4,1.1,43.66360843,-79.37917817
Churchill Heights P.S.,306,97.1,1,98,1,43.77298911,-79.22439265
Churchill P.S.,234,96.2,2.1,94.9,2.1,43.7707536,-79.42703616
City School,81,79,11.1,87.7,11.1,43.63574882,-79.39718759
City View Alternative Sr,54,77.8,20.4,79.6,20.4,43.64852424,-79.43672217
Claireville Jr School,144,97.2,1.4,94.4,1.4,43.7478422,-79.59822775
Clairlea P.S.,415,92.5,2.9,95.2,2.9,43.71658998,-79.29618668
Claude Watson School for The Arts,300,94.3,3,96.7,3,43.7653996,-79.40921782
Cliffside P.S.,142,97.2,1.4,95.8,1.4,43.70488211,-79.25053604
Cliffwood P.S.,198,97,1,96.5,1,43.80629209,-79.3600686
Clinton Street Jr P.S.,273,95.6,2.9,96,2.6,43.65764607,-79.41405757
College Francais elementaire,118,70.3,3.4,79.7,3.4,43.66248824,-79.37790696
Greenland P.S.,81,96.3,2.5,95.1,2.5,43.73360704,-79.33853293
College Francais Secondaire,154,77.9,4.5,87,4.5,43.66248824,-79.37790696
Contact Alternative School,35,68.6,5.7,94.3,5.7,43.65376573,-79.3903939
Cordella Jr P.S.,77,94.8,2.6,93.5,2.6,43.67907009,-79.48758544
Cornell Jr P.S.,464,96.3,0.2,95.9,0.2,43.75939258,-79.21803822
Corvette Jr P.S.,349,94.6,0.9,95.4,0.9,43.72648511,-79.26215973
Cosburn Middle School,641,91.6,1.9,96.7,1.9,43.69375152,-79.33092844
Cottingham Jr P.S.,100,96,3,96,3,43.68037944,-79.39560901
Courcelette P.S.,215,91.2,6.5,93,6.5,43.67931883,-79.27856592
Crescent Town Elementary,258,93.4,1.2,95,1.2,43.69683675,-79.29246651
Cresthaven P.S.,167,95.2,3.6,95.2,3.6,43.79756474,-79.36435747
Crestview P.S.,177,98.3,0,96.6,0,43.78843218,-79.3598466
Cummer Valley Middle School,418,97.4,0.2,94.5,0.2,43.78876462,-79.40095036
D A Morrison Middle School,426,92.5,2.1,95.1,2.3,43.69539646,-79.31169244
Da Vinci School,47,57.4,36.2,59.6,36.2,43.65895304,-79.40190985
Dallington P.S.,273,96.3,1.8,97.1,1.8,43.77712813,-79.35475535
Danforth C. I. and Technical School,945,86.8,2.2,96.4,2.2,43.68283873,-79.33408956
Danforth Gardens P.S.,356,93.3,0.8,92.1,0.8,43.70845556,-79.27097739
Dante Alighieri Academy,785,82.2,0.6,92.6,0.6,43.71007742,-79.45836983
D'Arcy McGee C.S.,217,94.5,0,95.4,0,43.69225563,-79.44291158
David and Mary Thomson C.I.,937,87,1,94.7,1,43.75360656,-79.25957913
David Hornell Jr School,140,91.4,4.3,91.4,4.3,43.61933328,-79.48889366
David Lewis P.S.,344,95.1,0,95.9,0,43.80919671,-79.31788606
Davisville Jr P.S.,304,96.1,2,95.7,2,43.690769,-79.436797
Daystrom P.S.,235,96.6,0,98.3,0,43.74794693,-79.5469633
Deer Park Jr & Sr P.S.,404,91.6,3.2,94.1,3.2,43.68965195,-79.39155638
Delphi Secondary Alternative,84,79.8,3.6,94,3.6,43.79961824,-79.2779223
Delta Senior Alternative,60,88.3,10,88.3,10,43.65868159,-79.41884372
Denlow P.S.,259,96.5,3.1,96.5,2.7,43.74583949,-79.36422773
Dennis Avenue Community School,54,90.7,3.7,94.4,3.7,43.68441954,-79.48728632
Derrydown P.S.,231,94.8,2.2,94.8,2.2,43.75868993,-79.49371018
Dewson Street Jr P.S.,300,93.3,5.3,93.7,5.3,43.65654907,-79.42458469
Diefenbaker Elementary,247,91.9,4.5,94.7,4.5,43.69505953,-79.33214394
Dixon Grove JMS,594,89.9,0.3,93.9,0.3,43.68470917,-79.55595464
Don Mills C.I.,935,86.5,1.9,95.7,1.9,43.73595929,-79.33927715
Don Mills Middle School,409,88.8,2.4,93.4,2.4,43.73685277,-79.3404328
Don Valley Jr H.S.,363,92.6,0.6,96.4,0.6,43.78953291,-79.35496656
Donview Middle Health & Wellness Academy,356,85.4,1.7,92.4,1.7,43.76418772,-79.33143831
Donwood Park Jr P.S.,449,90.9,2.2,91.5,2.2,43.75697831,-79.26236511
Dorset Park P.S.,159,91.8,0.6,96.2,0.6,43.75021495,-79.27986197
Dovercourt P.S.,293,91.8,2.7,93.2,2.7,43.66673561,-79.43577895
Downsview P.S.,121,95.9,1.7,95,1.7,43.73111384,-79.4824358
Downsview S.S.,501,79.2,2,90.2,2,43.73039575,-79.47965761
Downtown Alternative School,66,92.4,6.1,90.9,6.1,43.64773613,-79.37041565
Downtown Vocal Music Academy of Toronto,47,87.2,6.4,89.4,6.4,43.65122054,-79.40263666
Dr Marion Hilliard Sr P.S.,269,89.6,1.5,96.3,1.5,43.80368608,-79.22482183
Dr Norman Bethune C.I.,932,90.1,0.2,98,0.2,43.81216214,-79.31942841
Drewry S.S.,49,81.6,2,89.8,2,43.78698147,-79.42121369
Driftwood P.S.,240,90.4,0.4,92.1,0.4,43.76255571,-79.51513769
Dublin Heights EMS,631,91,3.3,91.9,3.5,43.74909669,-79.44772492
Duke of Connaught Jr & Sr P.S.,695,94.2,3,96,3,43.66639455,-79.322043
Dundas Jr P.S.,206,95.1,2.4,94.2,2.4,43.66207775,-79.34868633
Dunlace P.S.,209,96.7,1.9,95.7,1.9,43.76245942,-79.37035733
Earl Beatty Jr & Sr P.S.,277,95.3,4.3,94.9,4.3,43.68601803,-79.32156563
Earl Grey Sr P.S.,452,89.6,2.4,96.7,2.4,43.67680529,-79.33992929
Earl Haig P.S.,372,94.4,2.4,96.8,2.4,43.68133145,-79.32125047
Earl Haig S.S.,1810,87.3,1.2,96.6,1.2,43.76953933,-79.4073635
East Alternative School of Toronto,62,91.9,3.2,96.8,3.2,43.67180637,-79.33847625
East York Alternative S.S.,60,90,0,100,0,43.69499136,-79.32529564
East York C.I.,1003,85.6,2.6,94.9,2.5,43.69450873,-79.32735334
Eastdale C.I.,95,84.2,1.1,96.8,1.1,43.66592657,-79.34881892
Eastview P.S.,226,86.3,0,89.4,0,43.75906266,-79.19133529
Eatonville Junior School,131,96.2,0,95.4,0,43.63830795,-79.56700242
Ecole elementaire Charles-Sauriol,205,84.9,0.5,86.8,0.5,43.66767367,-79.45534963
Ecole elementaire etienne-Brule,151,76.8,1.3,86.1,1.3,43.75221224,-79.37159325
Ecole elementaire Felix-Leclerc,124,79,5.6,80.6,5.6,43.68969312,-79.56144563
Ecole elementaire Gabrielle-Roy,159,85.5,2.5,85.5,2.5,43.656787,-79.372213
Ecole elementaire Jeanne-Lajoie,252,82.1,0.8,85.7,0.8,43.73449677,-79.32149457
Ecole elementaire La Mosaique,273,88.6,5.5,90.8,5.1,43.68733045,-79.33053499
Ecole elementaire Laure-Riese,174,78.7,3.4,78.2,3.4,43.82246261,-79.27742207
Ecole elementaire Mathieu-Da-Costai,102,76.5,0,85.3,0,43.71782794,-79.4755347
Ecole elementaire Micheline-Saint-Cyr,49,81.6,0,71.4,0,43.59021886,-79.54378099
Ecole elementaire Paul-Demers,66,53,1.5,60.6,1.5,43.79195184,-79.36734039
Ecole elementaire Pierre-Elliott-Trudeau,213,89.2,4.2,86.9,4.2,43.65199104,-79.41409749
Ecole elementaire Toronto Ouest,156,80.8,2.6,90.4,2.6,43.65238363,-79.44123542
Ecole Secondaire etienne-Brule,281,81.9,2.5,92.9,2.5,43.75221224,-79.37159325
Ecole Secondaire Toronto Ouest,153,85,2.6,92.8,2.6,43.65238363,-79.44123542
Edgewood P.S.,119,98.3,0,98.3,0,43.76630546,-79.26581203
EEC Du Sacre-Coeur-Toronto,69,88.4,0,89.9,0,43.66825375,-79.42226809
EEC Georges-etienne-Cartier,233,88.8,0.9,91,0.9,43.67790389,-79.31947311
EEC Notre-Dame-De-Grce - Toronto,105,85.7,1.9,86.7,1.9,43.67946894,-79.55953947
EEC Sainte-Madeleine,156,89.1,0.6,90.4,0.6,43.76196879,-79.32271315
EEC Sainte-Marguerite-D'Youville,215,87.4,3.7,86.5,3.7,43.636066,-79.505891
EEC Saint-Jean-De-Lalande,76,88.2,2.6,88.2,2.6,43.80475002,-79.26408826
EEC Saint-Michel-Toronto,100,87,1,90,1,43.77745328,-79.15700499
EEC Saint-Noel-Chabanel-Toronto,98,85.7,1,85.7,1,43.73677565,-79.56076094
Eglinton Jr P.S.,280,94.3,2.1,93.6,2.1,43.70790375,-79.39084683
EIC Monseigneur-De-Charbonnel,62,88.7,3.2,90.3,3.2,43.78698147,-79.42121369
EIC Pere-Philippe-Lamarche,74,93.2,0,93.2,0,43.73888853,-79.24070576
EIC Saint-Frere-Andre,74,87.8,4.1,87.8,4.1,43.65238363,-79.44123542
Elia Middle School,290,88.3,0.3,94.5,0.3,43.75379932,-79.49845831
Elizabeth Simcoe Jr P.S.,203,94.1,5.4,94.6,5.4,43.73815196,-79.20603487
Elkhorn P.S.,243,96.7,2.5,96.3,2.5,43.77121539,-79.38006244
Ellesmere-Statton P.S.,460,91.5,0.9,94.8,0.9,43.76362361,-79.287572
Elmbank JMA,245,95.1,2.4,95.5,2.4,43.7365019,-79.59004707
Elmlea Jr School,229,88.6,3.1,89.1,3.1,43.71562668,-79.55057615
Emery C.I.,484,85.5,1.2,93.8,1.2,43.74872271,-79.53955698
Emily Carr P.S.,229,96.9,1.3,97.4,1.3,43.80502239,-79.20693586
Epiphany of Our Lord Catholic Academy,141,81.6,0,86.5,0,43.7989581,-79.32894025
Equinox Holistic Alternative,132,78,22,78,22,43.67387327,-79.32307649
Ernest P.S.,69,95.7,1.4,91.3,1.4,43.79141547,-79.33738257
ESC Monseigneur-de-Charbonnel,140,81.4,2.1,96.4,2.1,43.78698147,-79.42121369
ESC Pere-Philippe-Lamarche,81,80.2,0,93.8,0,43.73888853,-79.24070576
ESC Saint-Frere-Andre,142,81,3.5,94.4,3.5,43.65238363,-79.44123542
Essex Jr & Sr P.S.,208,85.6,3.4,90.9,3.4,43.66825375,-79.42226809
Etienne Brule Jr School,105,96.2,2.9,94.3,2.9,43.63561874,-79.48968446
Etobicoke C.I.,957,86.4,1.8,96.6,1.8,43.6500842,-79.52229621
Etobicoke School of The Arts,929,80.1,4.3,93.4,4.3,43.63073221,-79.50414852
Etobicoke Year Round Alternative Centre,26,88.5,3.8,96.2,3.8,43.63385785,-79.55127611
F H Miller Jr P.S.,77,92.2,2.6,93.5,2.6,43.68400577,-79.45889809
Fairbank JMS,230,87.4,3,91.7,3,43.69435391,-79.44941775
Fairbank Memorial Community School,78,92.3,0,93.6,0,43.69170324,-79.4554057
Fairglen Jr P.S.,236,97.5,0,99.2,0,43.78493638,-79.32223819
Fairmount P.S.,308,95.1,1.6,96.4,1.6,43.71975809,-79.23089418
Father Henry Carr Catholic S.S.,850,83.8,0.5,94.5,0.5,43.73584248,-79.59237755
Father John Redmond Catholic S.S.,1187,83,3,94.4,3,43.59514135,-79.51653877
Father Serra C.S.,386,88.9,3.4,92.7,3.4,43.68624343,-79.53684468
Faywood Arts-Based Curriculum School,324,91.4,4.6,88.9,4.6,43.73985504,-79.44669733
Fenside P.S.,124,91.9,0.8,94.4,0.8,43.76458052,-79.32912658
Fern Avenue Jr & Sr P.S.,545,92.5,2.6,96.5,2.6,43.64518032,-79.44611284
Finch P.S.,151,92.7,2.6,92.7,2.6,43.78383308,-79.3949742
Firgrove P.S.,208,93.3,0,94.2,0,43.75200089,-79.51991086
Fisherville Sr P.S.,159,79.2,1.3,83,1.3,43.78456549,-79.44100625
Fleming P.S.,192,98.4,0,99.5,0,43.81536122,-79.20371416
Flemington P.S.,133,97.7,0,96.2,0,43.72012525,-79.444245660000007
Forest Hill C.I.,928,87,1.3,96,1.3,43.70305826,-79.42134278
Forest Hill Jr & Sr P.S.,675,95,1.6,95,1.6,43.69539527,-79.414124
Forest Manor P.S.,393,93.9,0.3,94.7,0.3,43.77104274,-79.3430668
Francis Libermann Catholic H.S.,878,86,0.8,95.4,0.8,43.80739234,-79.27430784
Frank Oke S.S.,74,82.4,2.7,97.3,2.7,43.67751242,-79.48875423
Frankland Community School,233,93.6,3.4,94,3.4,43.67713734,-79.34993745
Galloway Road P.S.,148,89.2,1.4,92.6,1.4,43.76498481,-79.19683417
Garden Avenue Jr P.S.,172,97.7,2.3,95.9,2.3,43.64320011,-79.4491237
Gateway P.S.,522,93.9,1.7,93.1,1.7,43.71172622,-79.33100915
General Brock P.S.,302,94,1.7,94,1.7,43.7184085,-79.27486723
General Crerar P.S.,285,93.3,2.1,96.1,2.1,43.74568677,-79.27957766
General Mercer Jr P.S.,130,90.8,4.6,90.8,4.6,43.67905973,-79.46401246
George Anderson P.S.,91,100,0,96.7,0,43.70545353,-79.47894806
George B Little P.S.,294,95.2,0.3,96.3,0.3,43.77119941,-79.20811045
George Harvey C.I.,401,80,0.7,85.8,0.7,43.68454651,-79.47369919
George P Mackie Jr P.S.,77,93.5,5.2,93.5,5.2,43.73932731,-79.21199397
George Peck P.S.,187,90.4,1.1,93.6,0.5,43.73825848,-79.29363519
George R Gauld Jr School,75,96,0,100,0,43.62063709,-79.49851943
George S Henry Academy,338,81.1,1.2,92.3,1.2,43.76435996,-79.33992003
George Syme Community School,226,92,2.2,93.8,2.2,43.66925138,-79.49112677
George Webster Elementary,538,87.7,0.7,90,0.7,43.7010489,-79.29976062
Georges Vanier S.S.,747,76.2,0.3,86.1,0.3,43.7842923,-79.35049619
Givins/Shaw Jr P.S.,194,92.8,3.6,93.3,3.6,43.64640766,-79.41758429
Glamorgan Jr P.S.,327,97.6,0,96.9,0,43.77130031,-79.28955383
Gledhill Jr P.S.,258,96.1,2.7,96.9,2.7,43.68765348,-79.30951421
Glen Ames Sr P.S.,414,90.8,1.7,97.6,1.7,43.67395983,-79.29833223
Glen Park P.S.,307,96.4,2.9,96.1,2.9,43.71317225,-79.43638199
Glen Ravine Jr P.S.,179,98.9,0.6,98.9,0.6,43.73822463,-79.25405895
Glenview Sr P.S.,768,90.9,1,98,1,43.71997644,-79.4095247
Golf Road Jr P.S.,190,98.4,0,99.5,0,43.76365832,-79.21697024
Gordon A Brown Middle School,368,90.5,4.1,94,4.1,43.70786931,-79.30535295
Gosford P.S.,150,95.3,0,98,0,43.76431849,-79.52132419
Gracedale P.S.,363,93.9,1.1,93.7,1.1,43.75319754,-79.56184211
Gracefield P.S.,140,90.7,0.7,94.3,0.7,43.70932053,-79.49134131
Greenholme JMS,234,96.2,0,98.7,0,43.73507154,-79.58290811
Greenwood S.S.,123,61.8,0,64.2,0,43.68283873,-79.33408956
Grenoble P.S.,623,95.5,0.8,95.5,0.8,43.71527454,-79.33225251
Grey Owl Jr P.S.,143,91.6,2.8,91.6,2.8,43.8039893,-79.21330032
Guildwood Jr P.S.,63,92.1,7.9,92.1,7.9,43.75082107,-79.19998668
Gulfstream P.S.,435,91.3,1.1,94,1.1,43.73907798,-79.5420098
H A Halbert Jr P.S.,136,95.6,0.7,96.3,0.7,43.7276496,-79.23173607
H J Alexander Community School,304,91.8,1.6,91.4,1.6,43.70249383,-79.52054426
Harbord C.I.,1014,84.4,2.9,96.1,2.9,43.66128952,-79.41426662
Harrison P.S.,102,97.1,1,97.1,1,43.75736847,-79.37730861
Harwood P.S.,130,90.8,0.8,96.2,0.8,43.67618591,-79.47841248
Hawthorne II Bilingual Alternative Jr,119,93.3,5.9,92.4,5.9,43.66825375,-79.42226809
Heather Heights Jr P.S.,118,94.1,0.8,92.4,0.8,43.77515588,-79.21506873
Henry Hudson Senior P.S.,287,92.7,0.7,96.9,0.7,43.77773718,-79.21446737
Henry Kelsey Senior P.S.,298,94,0.3,98.3,0.3,43.79834559,-79.27702821
Heritage Park P.S.,237,95.4,0.8,95.4,0.8,43.82135089,-79.20772016
Heydon Park S.S.,91,75.8,2.2,97.8,2.2,43.65496461,-79.39453475
High Park Alternative Jr,96,82.3,13.5,84.4,13.5,43.66142319,-79.47283128
Highcastle P.S.,225,97.8,0.4,97.3,0.4,43.7867616,-79.21249563
Highfield Jr School,381,93.4,0.5,93.4,0.5,43.74557567,-79.58920656
Highland Creek P.S.,138,97.1,0.7,96.4,0.7,43.7835009,-79.17844629
Highland Heights Jr P.S.,115,96.5,0.9,96.5,0.9,43.79441991,-79.30026235
Highland Jr High School,482,94,1,96.9,1,43.80686038,-79.35544809
Highview P.S.,101,89.1,0,90.1,0,43.72195105,-79.49723027
Hillcrest Community School,224,94.2,4.5,94.2,4.5,43.67904245,-79.41584478
Hillmount P.S.,121,93.4,2.5,94.2,2.5,43.79940759,-79.35072651
Hilltop Middle School,558,91.9,3.6,94.3,3.6,43.68946274,-79.53306701
Hodgson Sr P.S.,528,93.9,2.7,95.6,2.7,43.701095,-79.38479329
Hollycrest Middle School,475,90.7,3.4,94.3,3.4,43.65610422,-79.58270785
Hollywood P.S.,224,97.3,0.9,97.3,0.9,43.77051851,-79.39182913
Holy Angels C.S.,368,88,2.2,90.2,2.2,43.62840926,-79.517657259999993
Holy Child C.S.,227,87.7,0,91.2,0,43.72888587,-79.61918187
Holy Cross C.S.,239,87.4,0.8,88.3,0.8,43.68998755,-79.34067637
Holy Family C.S.,167,82,1.2,83.2,1.2,43.63875022,-79.434911
Holy Name C.S.,234,87.6,1.7,91,1.7,43.6773475,-79.34728484
Holy Rosary C.S.,193,87.6,1.6,87.6,1.6,43.68504731,-79.41404533
Holy Spirit C.S.,324,84.3,0,85.8,0,43.78120775,-79.30309624
Horizon Alternative Sr School,67,85.1,7.5,91,7.5,43.65797846,-79.42199861
Howard Jr P.S.,328,94.8,4.3,94.8,4.3,43.65029872,-79.45199586
Humber Summit Middle School,450,88.4,1.1,90.7,1.1,43.75056475,-79.56452219
Humber Valley Village JMS,291,91.1,5.5,92.8,5.5,43.6655283,-79.52733737
Humbercrest P.S.,494,94.5,2.6,96.4,2.6,43.66045265,-79.49105537
Humberside C.I.,1195,84.1,2.6,96.2,2.6,43.65994272,-79.4706428
Humberwood Downs JMA,554,95.8,0.4,96.4,0.4,43.72888587,-79.61918187
Humewood Community School,410,93.7,3.9,95.1,3.7,43.68663509,-79.42802045
Hunter's Glen Jr P.S.,302,92.1,0.7,94.4,0.7,43.74571225,-79.26012199
Huron Street Jr P.S.,202,93.6,4.5,95.5,4.5,43.67103818,-79.4024111
Immaculate Conception C.S.,340,92.4,0,93.2,0,43.69768014,-79.4778217
Immaculate Heart of Mary C.S.,120,90.8,1.7,90.8,1.7,43.6961448,-79.262458
Indian Road Crescent Jr P.S.,204,94.1,4.4,95.1,4.4,43.66252873,-79.4600779
Inglenook Community School,50,78,4,88,6,43.65397529,-79.35940072
Inglewood Heights Jr P.S.,140,91.4,1.4,90.7,1.4,43.78046514,-79.29090549
Ionview P.S.,262,93.9,0,94.7,0,43.73761289,-79.27469827
Iroquois Jr P.S.,240,99.2,0,99.2,0,43.80268016,-79.26944081
Island Public/Natural Science School,154,95.5,3.2,96.1,3.2,43.61570028,-79.37838814
Islington JMS,342,92.1,1.8,93,1.8,43.64748282,-79.52794669
J B Tyrrell Sr P.S.,415,90.8,1.2,96.4,1.4,43.78887877,-79.32417507
J G Workman P.S.,136,93.4,0,94.1,0,43.70719126,-79.26712793
J R Wilcox Community School,186,94.6,2.7,93.5,2.7,43.69494679,-79.43630526
Jack Miner Sr P.S.,197,93.4,1,97.5,1,43.74968863,-79.18696834
Jackman Avenue Jr P.S.,414,94.4,4.1,94.4,4.3,43.68065022,-79.35393536
James Cardinal McGuigan Catholic H.S.,794,76.8,0.4,85.1,0.4,43.76328957,-79.4937986
James Culnan C.S.,346,91.3,0.6,93.6,0.6,43.66110712,-79.48558425
James S Bell JMS,318,91.2,4.1,92.8,4.1,43.59435423,-79.5301917
Jarvis C.I.,638,86.8,0.9,95.5,0.8,43.6662522,-79.37803485
Jean Vanier Catholic S.S.,821,82.7,0.5,91.6,0.4,43.73793993,-79.25841437
Jesse Ketchum Jr & Sr P.S.,345,89.6,3.2,90.7,3.2,43.67298262,-79.39213923
John A Leslie P.S.,383,93,0.3,93.7,0.3,43.71412189,-79.24885208
John Buchan Sr P.S.,184,90.2,0,94,0,43.78520343,-79.30085689
John D Parker Jr School,253,97.6,0.4,96.4,0.4,43.75338681,-79.59579099
John English JMS,698,91.7,3.6,93.6,3.6,43.61185573,-79.494418
John Fisher Jr P.S.,292,92.8,3.8,94.5,3.8,43.71192825,-79.39746938
John G Althouse Middle School,480,93.1,2.9,96,2.9,43.66811641,-79.55416146
John G Diefenbaker P.S.,171,94.7,2.9,96.5,2.9,43.80229503,-79.17186953
John McCrae P.S.,404,93.3,1.5,94.8,1.5,43.74404425,-79.23988651
John Polanyi C.I.,743,79.1,1.6,87.9,1.6,43.71780895,-79.43985531
John Ross Robertson Jr P.S.,372,96.2,2.4,96.2,2.4,43.71832598,-79.4088643
John Wanless Jr P.S.,443,98.9,1.1,98.6,1.1,43.72877873,-79.41179965
Joseph Brant Sr P.S.,459,86.9,1.1,90.8,1.1,43.76704404,-79.17549755
Joseph Howe Sr P.S.,392,91.3,1.5,97.4,1.5,43.78580785,-79.13729821
Josyf Cardinal Slipyj C.S.,395,84.8,7.8,84.8,7.8,43.6594752,-79.5660254
Joyce P.S.,154,98.7,0,95.5,0,43.70977539,-79.46375749
Kapapamahchakwe - Wandering Spirit School,153,68,7.8,73.9,8.5,43.67914023,-79.33663606
Karen Kain School of The Arts,172,86.6,8.7,90.7,8.7,43.631123530000004,-79.50020735
Keele Street Jr P.S.,347,90.2,4,92.2,4,43.65750747,-79.46159657
Keelesdale Jr P.S.,78,96.2,0,97.4,0,43.6869571,-79.47694631
Kennedy P.S.,415,97.6,0,96.4,0,43.81883592,-79.30818052
Kensington Community School,95,90.5,3.2,91.6,3.2,43.65639782,-79.40573152
Kew Beach Jr P.S.,312,94.9,3.8,94.6,3.8,43.66846424,-79.30272732
Kimberley Jr P.S.,160,100,0,100,0,43.68261997,-79.29912788
King Edward Jr & Sr P.S.,499,90.6,2.6,95,2.6,43.65824412,-79.40740893
King George Jr P.S.,123,95.9,2.4,94.3,2.4,43.6631627,-79.48688675
Kingslake P.S.,128,94.5,2.3,91.4,2.3,43.7848105,-79.34572893
Kingsview Village Jr School,260,83.8,2.3,87.7,2.3,43.69786666,-79.55078913
Kipling C.I.,410,75.4,0.2,89.5,0.2,43.68528812,-79.56235372
Knob Hill P.S.,366,93.2,0.3,93.4,0.3,43.74529228,-79.24978503
Lakeshore C.I.,603,81.6,2.5,94,2.5,43.60156342,-79.51916064
Lamberton P.S.,189,92.1,1.6,94.7,1.6,43.7536543,-79.50282449
Lambton Kingsway JMS,463,91.6,3.9,94.2,3.5,43.65865722,-79.50931481
Runnymede C.I.,522,85.4,1.7,96.7,1.7,43.66353227,-79.48981138
Lambton Park Community School,79,72.2,0,74.7,0,43.66757598,-79.49830749
L'amoreaux C.I.,443,81.3,1.4,90.7,1.4,43.80291777,-79.31807375
Lanor JMS,218,94.5,3.7,95.4,3.7,43.60966673,-79.54476956
Lawrence Heights Middle School,148,89.9,2.7,92.6,2.7,43.72083225,-79.45107725
Lawrence Park C.I.,1178,85.3,2.4,97.3,2.3,43.72222271,-79.41043908
Leaside High School,958,86.5,1.5,97.7,1.5,43.71112409,-79.37269411
Ledbury Park EMS,384,94.3,1.3,94.3,1.3,43.72739047,-79.42732263
Lescon P.S.,112,84.8,2.7,84.8,2.7,43.78084349,-79.35749461
Leslieville Jr P.S.,231,95.7,0.9,97.4,0.9,43.66732077,-79.33240772
Lester B Pearson C.I.,1291,88,0.7,98.3,0.7,43.80333392,-79.22539867
Lester B Pearson Elementary,385,94.8,2.3,97.9,2.1,43.79231944,-79.38746232
Lillian P.S.,138,98.6,0,96.4,0,43.79782137,-79.4103985
Lord Dufferin Jr & Sr P.S.,306,95.8,0.7,96.7,0.7,43.66082454,-79.36695506
Lord Lansdowne Jr P.S.,174,95.4,3.4,96,3.4,43.65895304,-79.40190985
Lord Roberts Jr P.S.,252,96.4,0.4,96.8,0.4,43.74142643,-79.2636597
Loretto Abbey Catholic S.S.,904,86.7,1.5,97.7,1.5,43.74129632,-79.41065656
Loretto College School,418,84.9,0.5,96.9,0.5,43.67573671,-79.44324695
Lucy Maud Montgomery P.S.,133,95.5,0,98.5,0,43.79691679,-79.20936572
Lucy McCormick Sr School,51,33.3,5.9,80.4,5.9,43.66463261,-79.46017997
Lynngate Jr P.S.,104,92.3,2.9,93.3,2.9,43.77646901,-79.30071632
Lynnwood Heights Jr P.S.,101,92.1,2,93.1,2,43.79658396,-79.29051029
Macklin P.S.,340,95,0.6,95.9,0.6,43.82199191,-79.26769422
Madonna Catholic S.S.,634,84.2,0.2,92.9,0.2,43.72951508,-79.4774808
Malvern C.I.,1107,85.2,2.8,96.1,2.8,43.68291415,-79.29293632
Malvern Jr P.S.,236,96.2,0.8,95.8,0.8,43.79783946,-79.23325194
Manhattan Park Jr P.S.,65,90.8,3.1,89.2,3.1,43.753354,-79.29530112
Maple Leaf P.S.,160,91.3,4.4,93.1,4.4,43.71485064,-79.49027522
Maplewood High School,93,86,5.4,94.6,4.3,43.75889785,-79.19489463
Marc Garneau C.I.,1629,83.2,0.6,95,0.6,43.70897569,-79.33496795
Market Lane Jr & Sr P.S.,191,91.6,1.6,92.1,1.6,43.64985038,-79.3647414
Marshall McLuhan Catholic S.S.,1032,87.3,0.7,96.1,0.7,43.70760025,-79.40973516
Martingrove C.I.,1088,86.8,0.9,97.1,0.9,43.67338277,-79.56073964
Mary Shadd P.S.,310,94.5,0.6,96.1,0.6,43.8143957,-79.21832404
Mary Ward Catholic S.S.,1002,87.5,1.2,96.9,1.1,43.81575342,-79.30394007
Maryvale P.S.,180,89.4,2.2,92.8,1.7,43.75467112,-79.30791157
Mason Road Jr P.S.,209,89.5,0.5,90.4,0.5,43.73925479,-79.22568299
Maurice Cody Jr P.S.,374,96,2.1,96.3,2.1,43.70481966,-79.3774482
McKee P.S.,427,97.2,0.9,97.9,0.9,43.77292432,-79.41664769
McMurrich Jr P.S.,350,92.9,4,93.1,4,43.67807637,-79.43106195
Meadowvale P.S.,177,91,1.7,96,1.7,43.79551101,-79.16406818
Melody Village Jr School,124,99.2,0.8,97.6,0.8,43.73813475,-79.59484258
Michael Power/St Joseph H.S.,1818,84.6,2,95.5,2,43.65928999,-79.58198408
Military Trail P.S.,319,90.3,0.6,91.2,0.6,43.78911549,-79.19711697
Mill Valley Jr School,83,92.8,7.2,92.8,7.2,43.64418939,-79.58697157
Milliken P.S.,184,96.2,1.6,96.7,1.6,43.81658655,-79.28849695
Millwood Jr School,241,97.5,2.1,97.5,2.1,43.63336228,-79.57711952
Milne Valley Middle School,575,89.4,1.6,93.7,1.6,43.74720205,-79.32670912
Monarch Park C.I.,775,86.8,2.3,96,2.3,43.67928073,-79.32277189
Monsignor Fraser College - Alternate Study,106,82.1,1.9,95.3,1.9,43.66979946,-79.37715337
Monsignor Fraser College - Isabella,14,42.9,7.1,71.4,7.1,43.66979946,-79.37715337
Monsignor Fraser College - Midland,16,87.5,0,100,0,43.80106916,-79.28571749
Monsignor Fraser College - Midland North,28,89.3,0,96.4,0,43.80106916,-79.28571749
Monsignor Fraser College - Midtown,26,69.2,0,96.2,0,43.706595,-79.39996075
Monsignor Fraser College - Norfinch,73,80.8,0,93.2,0,43.75780953,-79.52704295
Monsignor Fraser College - Northeast,64,78.1,0,92.2,0,43.8218115,-79.27033145
Monsignor Fraser College - Southwest,99,75.8,1,94.9,1,43.66613477,-79.45644834
Monsignor Fraser College - St. Martin,16,62.5,0,100,0,43.66717452,-79.36442585
Monsignor John Corrigan C.S.,158,87.3,0.6,88,0.6,43.75157005,-79.60501369
Monsignor Percy Johnson Catholic H.S.,936,84.9,0.9,94.7,0.9,43.72069467,-79.57201689
Montrose Jr P.S.,112,99.1,0.9,98.2,0.9,43.65868159,-79.41884372
Morrish P.S.,235,94.9,0.4,97.9,0.4,43.79318792,-79.17927003
Morse Street Jr P.S.,323,96.6,1.9,96.9,1.9,43.66016692,-79.34016669
Mother Cabrini C.S.,136,87.5,2.2,89,2.2,43.66377811,-79.58630809
Mountview Alternative Jr,63,93.7,4.8,93.7,4.8,43.66353227,-79.48981138
Muirhead P.S.,97,96.9,2.1,90.7,2.1,43.77888402,-79.33745018
Native Learning Centre,15,66.7,6.7,86.7,6.7,43.66360843,-79.37917817
Nativity of Our Lord C.S.,322,86,2.8,87.6,2.8,43.65312324,-79.57537018
Neil McNeil High School,822,87.1,1.7,96.4,1.6,43.67923485,-79.28309716
Nelson Mandela Park P.S.,234,94,2.1,94.9,2.1,43.65835275,-79.36060291
Newtonbrook S.S.,749,80.6,1.7,89.9,1.7,43.79354914,-79.42624259
Niagara Street Jr P.S.,125,92,1.6,96.8,1.6,43.64393746,-79.40825293
Norman Cook Jr P.S.,83,95.2,1.2,96.4,1.2,43.71903913,-79.25779513
Norman Ingram P.S.,109,92.7,3.7,94.5,3.7,43.73995245,-79.34960615
Norseman JMS,581,92.9,2.1,96.7,2.1,43.63430526,-79.51632975
North Agincourt Jr P.S.,267,97.4,1.1,98.1,1.1,43.79645371,-79.27621279
North Albion C.I.,757,85.1,0.1,98,0,43.74714157,-79.58514278
North Bendale Jr P.S.,75,90.7,2.7,94.7,2.7,43.77045371,-79.24763647
North Bridlewood Jr P.S.,136,94.1,1.5,95.6,1.5,43.78891636,-79.31858708
North East Year Round Alternative,29,86.2,3.4,93.1,3.4,43.7842923,-79.35049619
North Kipling JMS,469,91.9,0.6,94.5,0.6,43.75176209,-79.58489255
North Preparatory Jr P.S.,122,95.1,0.8,96.7,0.8,43.70548233,-79.42038503
North Toronto C.I.,1286,86.2,1.2,97,1.2,43.70969341,-79.39723033
North West Year Round Alternative,14,71.4,0,100,0,43.78456549,-79.44100625
Northern S.S.,1678,85.3,3.1,95.8,3,43.7105371,-79.3901643
Northlea EMS,560,95.9,1.6,97.7,1.6,43.71462362,-79.37017345
Northview Heights S.S.,1490,84.6,1.1,93.7,1.1,43.77442921,-79.44632478
Norway Jr P.S.,185,94.6,3.8,96.2,3.8,43.67627905,-79.3066687
Notre Dame Catholic H.S.,656,84.6,0.3,96.5,0.3,43.68068578,-79.29313138
Oakdale Park Middle School,417,91.6,0.7,95.2,0.7,43.74746507,-79.51199206
Oakridge Jr P.S.,265,88.7,0.8,86,0.8,43.69496075,-79.28254283
Oakwood C.I.,359,83.3,3.3,94.7,3.3,43.67865589,-79.43637901
Oasis Alternative,72,75,9.7,88.9,9.7,43.64572203,-79.39822258
O'Connor P.S.,80,86.3,0,91.3,0,43.71650733,-79.30415213
Ogden Jr P.S.,116,96.6,0.9,94.8,0.9,43.65001362,-79.39512686
Orde Street Jr P.S.,243,96.3,0.8,92.6,0.8,43.65862749,-79.39226008
Oriole Park Jr P.S.,156,96.2,3.2,95.5,3.2,43.70257155,-79.40969328
Ossington/Old Orchard Jr P.S.,188,95.7,3.2,95.2,3.2,43.65270767,-79.42259976
St Joachim C.S.,217,91.7,0,92.6,0,43.71282528,-79.27514407
Our Lady of Fatima C.S.,558,85.8,1.8,86.7,1.8,43.71015994,-79.29361584
Our Lady of Grace C.S.,194,87.1,0.5,93.3,0.5,43.81169988,-79.27408966
Our Lady of Guadalupe C.S.,121,83.5,0.8,84.3,0.8,43.78953291,-79.35496656
Our Lady of Lourdes C.S.,383,86.7,0,87.5,0,43.66604349,-79.37469556
Our Lady of Peace C.S.,458,88.9,3.3,93,3.3,43.64651225,-79.54107815
Our Lady of Perpetual Help C.S.,244,93,0.4,92.2,0.4,43.68729849,-79.38330488
Our Lady of Sorrows C.S.,577,90.5,2.4,92.5,2.4,43.64801452,-79.51832504
Our Lady of The Assumption C.S.,284,77.8,1.1,75,1.1,43.71618939,-79.431283
Our Lady of Victory C.S.,485,86.6,0.2,88.7,0.2,43.68332113,-79.49031478
Our Lady of Wisdom C.S.,236,88.1,3.8,91.1,3.8,43.76210878,-79.30818873
Owen P.S.,331,95.2,1.5,94.9,1.5,43.74905619,-79.3925162
Palmerston Avenue Jr P.S.,269,92.9,4.5,92.2,4.5,43.66814491,-79.41520495
Pape Avenue Jr P.S.,230,96.5,2.2,97.4,2.2,43.67035189,-79.34189362
Park Lane P.S.,47,55.3,0,74.5,0,43.72892362,-79.36682006
Park Lawn JMS,383,92.7,3.7,93.5,3.7,43.63770661,-79.49644692
Parkdale C.I.,493,84.8,1.4,95.7,1.4,43.63965751,-79.43606851
Parkdale Jr & Sr P.S.,334,87.1,3.3,86.2,3.3,43.64318729,-79.43679858
Parkfield Jr School,152,94.7,2,96.1,1.3,43.6820942,-79.56976738
Parkside Elementary,101,94.1,0,96,0,43.69985449,-79.31648307
Parkview Alternative,43,88.4,4.7,95.3,4.7,43.76737728,-79.31300261
Pauline Johnson Jr P.S.,167,92.8,0.6,93.4,0.6,43.78512986,-79.3035713
Pauline Jr P.S.,164,90.2,3,90.9,3,43.66248911,-79.439143670000007
Pelmo Park P.S.,166,91.6,3,90.4,3,43.71205673,-79.51811616
Percy Williams Jr P.S.,197,98.5,0,98.5,0,43.81266688,-79.26565853
Perth Avenue Jr P.S.,175,92,4,90.3,4,43.66283136,-79.45241969
Pierre Laporte Middle School,398,88.2,0.8,91.7,0.8,43.72507453,-79.49212431
Pineway P.S.,76,90.8,1.3,89.5,1.3,43.7957696,-79.37472553
Pleasant P.S.,272,95.2,3.3,93,3.3,43.79006404,-79.43461296
Pleasant View Middle School,313,93.9,1.3,93.6,1.3,43.78748776,-79.33390321
Pope Francis C.S.,184,89.1,0,91.3,0,43.65163137,-79.42101618
Poplar Road Jr P.S.,159,97.5,1.3,98.1,1.3,43.75366045,-79.18747895
Port Royal P.S.,243,95.5,0.8,96.3,0.8,43.8246324,-79.28996675
Portage Trail Community Jr School,480,91.9,2.9,92.3,2.9,43.69229618,-79.50976688
Precious Blood C.S.,327,85.6,0.9,87.5,0.9,43.73935643,-79.30223742
Presteign Heights Elementary,135,94.8,4.4,94.1,4.4,43.70554334,-79.31719398
Prince of Peace C.S.,230,90.9,0.9,93,0.9,43.82666428,-79.28015052
Princess Margaret Jr School,209,89.5,1.4,90.4,1.9,43.67130697,-79.5591424
Queen Alexandra Middle School,342,89.5,2.9,95,2.9,43.6611761,-79.35051827
Queen Victoria Jr P.S.,586,89.4,3.1,92.5,3.1,43.63625894,-79.43473265
Quest Alternative Sr,66,86.4,7.6,89.4,7.6,43.67046046,-79.35212966
R H King Academy,1229,87.2,0.7,98,0.6,43.72262234,-79.23745003
R H McGregor Elementary,409,96.3,1.2,96.1,1.2,43.68999526,-79.32713574
R J Lang EMS,323,89.8,1.5,90.1,1.5,43.78348538,-79.42651048
Ranchdale P.S.,124,96,0,96.8,0,43.752458,-79.32329144
Rawlinson Community School,501,93,2,95,2,43.68397707,-79.44004342
Regal Road Jr P.S.,357,93.3,2.2,93.3,2.2,43.67377517,-79.44006329
Regent Heights P.S.,371,91.4,0.5,91.1,0.5,43.70708131,-79.2889046
Regina Mundi C.S.,280,88.2,1.1,91.4,1.1,43.7098151,-79.45958643
Rene Gordon Health & Wellness Academy,161,95,1.2,94.4,1.2,43.7616437,-79.3403815
Richview C.I.,1035,84.8,2.6,96.8,2.6,43.67886863,-79.53891237
Rippleton P.S.,161,97.5,1.2,96.9,1.2,43.74090484,-79.36012047
Rivercrest Jr School,118,94.1,2.5,91.5,2.5,43.72971618,-79.56951774
Riverdale C.I.,1198,87.1,2.9,96.3,2.8,43.6700477,-79.33485982
Robert Service Sr P.S.,166,88,0,97.6,0,43.72902515,-79.25117818
Rockcliffe Middle School,296,88.9,2.4,95.3,2.4,43.67401618,-79.48843523
Rockford P.S.,430,93.7,1.6,94.2,1.6,43.78622535,-79.45230102
Roden P.S.,284,90.1,2.1,94.4,2.1,43.67387327,-79.32307649
Rolph Road Elementary,235,97.4,1.7,97.4,1.7,43.69978359,-79.3662514
Rose Avenue Jr P.S.,371,95.7,0,95.1,0,43.67016508,-79.3725055
Rosedale Heights School of The Arts,1045,80.9,8.2,89.6,8.2,43.67393966,-79.36601634
Rosedale Jr P.S.,151,98.7,0,98.7,0,43.67765573,-79.38168603
Roselands Jr P.S.,200,95.5,2.5,94,2.5,43.68122679,-79.499061
Rosethorn Jr School,258,94.6,5,93.8,5,43.65992057,-79.53948098
Rouge Valley P.S.,163,95.1,0.6,98.2,0.6,43.79938626,-79.15128739
Roywood P.S.,104,92.3,2.9,91.3,2.9,43.76472407,-79.32177318
Runnymede Jr & Sr P.S.,707,95.5,1.1,97.9,1.3,43.655965,-79.477517
Ryerson Community School,309,81.9,1.9,85.1,1.9,43.65122054,-79.40263666
Sacred Heart C.S.,194,84.5,1,88.7,1,43.812184,-79.220144
Samuel Hearne P.S.,372,87.9,0.5,90.3,0.5,43.69523843,-79.28367519
Santa Maria C.S.,161,90.1,0,91.3,0,43.68097329,-79.47768089
Satec at W A Porter C.I.,1181,88,0.3,96.4,0.3,43.71659346,-79.28726952
Scarborough Village P.S.,140,91.4,0,95.7,0,43.74411936,-79.22207179
School of Experiential Education,45,77.8,2.2,97.8,2.2,43.70163502,-79.54639098
School of Life Experience,28,92.9,0,96.4,0,43.67928073,-79.32277189
Second Street JMS,351,93.7,2.3,94.3,2.3,43.60366842,-79.49976626
Secord Elementary,327,93,2.4,93.9,2.4,43.6923789,-79.30183124
Seed Alternative,31,80.6,6.5,90.3,6.5,43.66207775,-79.34868633
Selwyn Elementary,163,95.7,3.1,96.3,3.1,43.70843965,-79.30632594
Senator O'Connor College,1321,85.5,1.3,94.7,1.3,43.75082727,-79.31736855
Seneca Hill P.S.,195,99,0,98.5,0,43.79087042,-79.35029699
Seneca School,56,91.1,3.6,94.6,3.6,43.65093395,-79.58254583
Seventh Street Jr School,118,94.9,3.4,95.8,3.4,43.59991069,-79.50463054
Shaughnessy P.S.,143,97.2,0,97.9,0,43.7703833,-79.35168206
Sheppard P.S.,99,98,1,94.9,1,43.74542436,-79.48826066
Shirley Street Jr P.S.,111,91.9,8.1,91.9,8.1,43.64852424,-79.43672217
Shoreham P.S.,146,90.4,1.4,91.1,1.4,43.76879954,-79.51738797
Silver Springs P.S.,250,96.4,0,96,0,43.80442951,-79.30237697
Silverthorn C.I.,834,82,2.4,95.2,2.4,43.63783591,-79.58038855
Silverthorn Community School,225,92.9,3.1,93.8,3.1,43.68724942,-79.46941511
Sir Adam Beck Jr School,244,94.3,4.1,94.7,4.1,43.60160187,-79.54816183
Sir Alexander Mackenzie Sr P.S.,396,89.9,1.3,97.5,1.3,43.70106136,-79.3710115
Sir Ernest Macmillan Sr P.S.,370,89.5,1.4,96.8,1.4,43.80687627,-79.3281933
Sir John A Macdonald C.I.,1094,85.7,1.5,95.4,1.3,43.78707736,-79.32367051
Sir Oliver Mowat C.I.,1048,86.5,2,97.1,2,43.77930193,-79.14223832
Sir Samuel B Steele Jr P.S.,234,97,0.9,97,0.9,43.80665071,-79.32744196
Sir Wilfrid Laurier C.I.,1319,87.2,1.1,97.3,1.1,43.7470335,-79.19699148
Sir William Osler H.S.,110,87.3,0.9,93.6,0.9,43.79756649,-79.28740133
Sloane P.S.,144,95.8,0,96.5,0,43.73121223,-79.31033966
Smithfield Middle School,631,93.5,0.3,98.1,0.3,43.75001113,-79.59575188
South East Year Round Alternative,27,92.6,0,100,0,43.72810107,-79.25668865
Spectrum Alternative Sr,60,88.3,8.3,91.7,8.3,43.69927642,-79.39489644
Sprucecourt Jr P.S.,194,92.8,1,96.9,1,43.66448601,-79.36382992
St Agatha C.S.,282,89,1.1,91.5,1.1,43.7236402,-79.22982087
St Agnes C.S.,241,81.3,2.1,81.3,2.1,43.79857548,-79.40260425
St Aidan C.S.,220,88.6,0.5,91.8,0.5,43.79737949,-79.30936652
St Albert C.S.,317,89.3,0.9,91.5,0.9,43.74360886,-79.26136635
St Alphonsus C.S.,165,84.2,1.2,86.7,1.2,43.68291369,-79.43220644
St Ambrose C.S.,258,85.7,3.9,88.4,3.9,43.6083701,-79.55012287
St Andre C.S.,419,86.2,0,88.1,0,43.72399451,-79.51763291
St Andrew C.S.,550,79.3,0.2,86.4,0.2,43.74493114,-79.58238178
St Andrews Middle School,393,93.1,2.3,94.9,2.3,43.75159735,-79.39032976
St Andrews P.S.,222,96.4,0,98.2,0,43.76664525,-79.25479628
St Angela C.S.,397,77.6,0.5,81.1,0.5,43.75338681,-79.59579099
St Anselm C.S.,269,89.2,2.6,91.1,2.6,43.70539439,-79.37159516
St Anthony C.S.,242,81.8,2.5,86,2.5,43.66370352,-79.43496884
St Antoine Daniel C.S.,297,81.5,0.3,82.8,0.3,43.77701083,-79.42984477
St Augustine C.S.,422,82.2,0.2,84.6,0.2,43.76823652,-79.52506429
St Barbara C.S.,265,84.9,1.1,84.5,1.1,43.76231218,-79.21875843
St Barnabas C.S.,207,94.2,1.4,93.2,1.4,43.79724122,-79.22851192
St Bartholomew C.S.,67,86.6,4.5,86.6,4.5,43.78960341,-79.27161837
St Bede C.S.,117,84.6,0.9,90.6,0.9,43.81797891,-79.2065477
St Benedict C.S.,436,86.5,0.9,89.4,0.7,43.72069467,-79.57201689
St Bernard C.S.,478,86.6,1,88.7,1,43.70250622,-79.50060787
St Bonaventure C.S.,435,90.8,1.1,93.1,1.1,43.73303235,-79.35625364
St Boniface C.S.,259,86.1,0,86.5,0,43.74092025,-79.21997302
St Brendan C.S.,409,90.2,0.5,94.4,0.5,43.78254695,-79.14925055
St Brigid C.S.,425,84,1.9,88,1.9,43.68694895,-79.31689929
St Bruno / St Raymond C.S.,158,80.4,5.7,84.8,5.1,43.67323995,-79.42706293
St Catherine C.S.,78,80.8,3.8,87.2,3.8,43.74233527,-79.32473908
St Cecilia C.S.,463,92,2.2,94.2,2.2,43.66142319,-79.47283128
St Charles C.S.,193,91.2,1,91.2,1,43.71328189,-79.45135069
St Charles Garnier C.S.,314,85.4,0.6,86.6,0.6,43.76259569,-79.51814172
St Clare C.S.,300,87.3,1.3,89.7,1.3,43.67941147,-79.44155159
St Clement C.S.,329,90.9,2.1,93.3,2.1,43.63224729,-79.57380819
St Columba C.S.,169,81.1,3.6,82.2,3.6,43.80619345,-79.21182741
St Conrad C.S.,426,89.9,0.7,90.6,0.7,43.73008526,-79.49345429
St Cyril C.S.,217,92.2,0.9,93.5,0.9,43.77705227,-79.41670118
St Demetrius C.S.,193,83.9,6.2,87.6,6.2,43.68465421,-79.52196594
St Denis C.S.,215,89.3,3.3,90.7,3.3,43.67299835,-79.28990762
St Dominic Savio C.S.,193,90.2,1,89.6,1,43.79828437,-79.15602387
St Dorothy C.S.,239,87.9,0.8,90,0.8,43.7314927,-79.59173973
St Dunstan C.S.,185,81.1,1.1,82.7,1.1,43.6934292,-79.2842392
St Edmund Campion C.S.,185,91.9,0,90.8,0,43.78803168,-79.21609072
St Edward C.S.,336,90.8,1.5,90.8,1.5,43.75395182,-79.41340608
St Elizabeth C.S.,167,79.6,2.4,86.2,2.4,43.6349427,-79.55745671
St Elizabeth Seton C.S.,116,89.7,1.7,94,1.7,43.78895124,-79.24670583
St Eugene C.S.,263,87.5,2.7,89.7,2.7,43.69260281,-79.53749174
St Fidelis C.S.,438,88.4,3,89.7,3,43.71728752,-79.48494849
St Florence C.S.,141,82.3,1.4,87.9,1.4,43.79691679,-79.20936572
St Francis De Sales C.S.,334,86.8,0.3,87.7,0.3,43.75413291,-79.51912451
St Francis of Assisi C.S.,123,87.8,4.1,93.5,4.1,43.65619987,-79.41462812
St Francis Xavier C.S.,372,85.2,0.5,87.6,0.5,43.71084951,-79.48340706
St Gabriel C.S.,227,76.7,1.3,78,1.3,43.7693579,-79.39134138
St Gabriel Lalemant C.S.,105,90.5,0,95.2,0,43.81270363,-79.22672748
St George's Jr,113,93.8,1.8,94.7,1.8,43.67260051,-79.54171219
St Gerald C.S.,212,83,0.9,83,0.9,43.78071327,-79.32637982
St Gregory C.S.,530,90.4,3,89.6,3,43.65963894,-79.54502121
St Helen C.S.,289,90.3,1,93.1,1,43.65208457,-79.43615633
St Henry C.S.,179,88.3,0.6,89.9,0.6,43.81364309,-79.32831621
St Ignatius of Loyola C.S.,91,87.9,5.5,89,5.5,43.80357849,-79.26541329
St Isaac Jogues C.S.,259,84.2,0.8,85.3,0.8,43.76232534,-79.32196017
St James C.S.,131,86.3,0.8,87.8,0.8,43.66467369,-79.49539788
St Jane Frances C.S.,517,87.8,0.4,89.7,0.4,43.74214816,-79.51316565
St Jean De Brebeuf C.S.,159,93.1,0.6,92.5,0.6,43.80251384,-79.17404098
St Jerome C.S.,372,84.4,0.3,88.7,0.3,43.7488344,-79.48854188
St John Bosco C.S.,238,90.3,0,90.3,0,43.68871579,-79.45055774
St John C.S.,336,89.9,0.9,93.5,0.9,43.68022438,-79.29456867
St John The Evangelist C.S.,306,85.6,0,87.6,0,43.71886369,-79.51022704
St John Vianney C.S.,282,86.9,2.5,86.2,2.5,43.73797591,-79.55384621
St Josaphat C.S.,108,77.8,7.4,76.9,7.4,43.59929856,-79.50905953
St Joseph C.S.,151,94,0.7,93.4,0.7,43.66580807,-79.33189055
St Joseph's College,758,85,0.9,92.5,0.9,43.66443686,-79.38886466
St Josephs Morrow Park H.S.,459,81.3,0.4,88.5,0.4,43.79713693,-79.39208061
St Jude C.S.,542,86.5,0,91,0,43.74048448,-79.53925654
St Kevin C.S.,180,88.3,1.1,90.6,1.1,43.75070676,-79.30585727
St Lawrence C.S.,329,90.9,0.6,92.1,0.6,43.74930639,-79.27992084
St Leo C.S.,200,84,2,86.5,2,43.61427999,-79.49628845
St Louis C.S.,145,90.3,3.4,91,3.4,43.62574512,-79.50095538
St Luigi C.S.,99,84.8,0,84.8,0,43.66283136,-79.45241969
St Malachy C.S.,214,86.9,0.9,90.7,0.9,43.77102043,-79.16663443
St Marcellus C.S.,286,81.1,1.7,82.9,1.7,43.67979194,-79.55422495
St Margaret C.S.,474,87.8,0.4,85,0.4,43.72897291,-79.44135545
St Margaret's P.S.,199,89.4,2,93.5,2,43.76826718,-79.19594342
St Marguerite Bourgeoys C.S.,69,88.4,0,91.3,0,43.80910932,-79.28561349
St Maria Goretti C.S.,717,89.7,0.3,90.8,0.3,43.72983532,-79.26592211
St Mark C.S.,144,83.3,4.9,84.7,4.9,43.63449985,-79.49019751
St Martha C.S.,162,84.6,3.7,87,3.7,43.741068,-79.50232466
St Martin De Porres C.S.,302,82.8,0,87.4,0,43.76712859,-79.18682181
St Mary C.S.,219,87.7,1.4,90,1.4,43.64584381,-79.40463497
St Mary of The Angels C.S.,167,93.4,0,93.4,0,43.67211886,-79.44029271
St Mary's Catholic S.S.,650,76.9,0.8,87.8,0.8,43.6577936,-79.43215429
St Matthew C.S.,378,93.1,0.5,94.7,0.5,43.68067023,-79.46794288
St Matthias C.S.,202,81.2,2,83.2,2,43.78489022,-79.35945563
St Maurice C.S.,204,85.8,0.5,87.7,0.5,43.69781276,-79.55393287
St Michael C.S.,129,82.9,1.6,90.7,1.6,43.64786941,-79.36961971
St Michael's Choir Jr School,169,92.9,3,94.1,3,43.65544574,-79.37768726
St Michael's Choir Sr School,88,83,2.3,95.5,2.3,43.65544574,-79.37768726
St Monica C.S.,223,84.8,0.9,90.1,0.9,43.71015928,-79.3976277
St Nicholas C.S.,273,89,1.1,90.1,1.1,43.74764379,-79.23285549
St Nicholas of Bari C.S.,454,91.9,0.7,92.1,0.7,43.68282437,-79.4604932
St Norbert C.S.,243,88.1,1.6,88.5,1.6,43.73410029,-79.46450004
St Oscar Romero Catholic S.S.,627,84.1,0.2,93.9,0.2,43.68033288,-79.48079681
St Paschal Baylon C.S.,522,84.7,0.4,82.6,0.4,43.79220069,-79.43132189
St Patrick Catholic S.S.,728,83.8,0.8,90.4,0.8,43.67845032,-79.32800364
St Paul C.S.,123,83.7,0,83.7,0,43.65548894,-79.36173419
St Pius X C.S.,373,89.5,1.9,90.9,1.9,43.65127722,-79.48471334
St Raphael C.S.,367,86.1,1.1,89.4,1.1,43.72856134,-79.48848695
St Rene Goupil C.S.,95,57.9,0,57.9,0,43.81934836,-79.28830312
St Richard C.S.,302,89.1,0.7,92.4,0.7,43.76837294,-79.24028339
St Rita C.S.,66,83.3,1.5,90.9,1.5,43.66613477,-79.45644834
St Robert C.S.,441,89.6,0.5,87.5,0.5,43.74909669,-79.44772492
St Roch C.S.,253,88.9,0,92.9,0,43.75370797,-79.56674972
St Rose of Lima C.S.,325,89.5,0.3,88.6,0.3,43.75748239,-79.24055992
St Sebastian C.S.,152,92.8,3.3,94.1,3.3,43.66276615,-79.43992647
St Simon C.S.,384,88.5,0.5,90.4,0.5,43.71890861,-79.53298735
St Stephen C.S.,294,88.8,0.3,88.1,0.3,43.7222273,-79.55211379
St Sylvester C.S.,130,88.5,2.3,90,2.3,43.80442951,-79.30237697
St Teresa C.S.,182,81.9,1.1,87.4,1.1,43.59929856,-79.50905953
St Theresa Shrine C.S.,157,94.3,0,94.9,0,43.71563786,-79.24247559
St Thomas Aquinas C.S.,401,84.8,0,88.8,0,43.69588971,-79.44574378
St Thomas More C.S.,235,86.4,0.4,88.9,0.4,43.77870333,-79.2254549
St Timothy C.S.,456,88.8,1.1,88.8,1.1,43.77515317,-79.35136251
St Ursula C.S.,184,92.9,0.5,93.5,0.5,43.75082107,-79.19998668
St Victor C.S.,235,89.8,0.4,93.2,0.4,43.76905716,-79.25910537
St Vincent de Paul C.S.,244,89.8,2.9,89.8,2.9,43.64682927,-79.44792302
St Wilfrid C.S.,472,80.5,0.4,83.5,0.4,43.75991688,-79.50255431
St. Basil The Great College,1258,86.2,0.7,95.1,0.7,43.72716809,-79.53345069
St. John Paul II Catholic S.S.,1276,86.8,0.5,97.2,0.5,43.78911549,-79.19711697
St. John XXIII C.S.,305,80.7,0.7,78.4,0.7,43.71245397,-79.32984789
St. Kateri Tekakwitha C.S.,213,78.9,2.3,78.4,2.3,43.78581971,-79.33805159
St. Mother Teresa Catholic Academy,413,83.5,1.5,90.1,1.5,43.80724295,-79.21778942
Stanley P.S.,209,94.7,1.4,95.2,1.4,43.74183118,-79.51782704
Steelesview P.S.,200,98.5,1,97.5,1,43.80266609,-79.38563286
Stella Maris C.S.,263,91.6,0.8,92.8,0.8,43.67969136,-79.44452074
Stephen Leacock C.I.,511,82.2,0.6,93.2,0.6,43.78520343,-79.30085689
Stilecroft P.S.,138,96.4,0.7,94.2,0.7,43.75105582,-79.4932051
Sts Cosmas and Damian C.S.,261,87.7,0.8,87.7,0.8,43.70659006,-79.44556836
Subway Academy I,21,71.4,9.5,81,9.5,43.67914023,-79.33663606
Subway Academy II,19,78.9,0,78.9,0,43.65576524,-79.3957051
Summit Heights P.S.,274,97.4,2.6,96.7,2.6,43.74132177,-79.43003694
Sunny View Jr & Sr P.S.,67,83.6,3,86.6,3,43.71984376,-79.38733761
Sunnylea Jr School,178,96.6,2.8,96.6,2.8,43.64244399,-79.50687324
Swansea Jr & Sr P.S.,642,94.4,3.3,96,3.3,43.64345739,-79.47708504
Tam O'Shanter Jr P.S.,202,97,0.5,95.5,0.5,43.78507164,-79.29766169
Taylor Creek P.S.,275,96.4,0.4,98.5,0.4,43.70003776,-79.27728774
Tecumseh Senior P.S.,263,88.6,0.8,96.2,0.8,43.76365832,-79.21697024
Terraview-Willowfield P.S.,202,93.1,3.5,93.6,3.5,43.76378291,-79.30857274
Terry Fox P.S.,282,96.8,0,98.9,0,43.81589936,-79.3186863
The Divine Infant C.S.,82,87.8,1.2,90.2,1.2,43.8218115,-79.27033145
The Elms JMS,287,93,1.7,94.8,1.7,43.7222273,-79.55211379
The Grove Community School,76,80.3,19.7,80.3,19.7,43.64602125,-79.42884725
The Holy Trinity C.S.,317,82,2.2,84.2,2.2,43.59514135,-79.51653877
The Student School,22,77.3,4.5,95.5,4.5,43.6570501,-79.47413781
The Waterfront School,142,94.4,4.9,92.3,4.9,43.63574882,-79.39718759
Thistletown C.I.,441,82.8,1.4,97.1,0.9,43.72772656,-79.56245265
Thomas L Wells P.S.,396,96.2,0,99.2,0,43.8243707,-79.225979
Thorncliffe Park P.S.,1108,95.8,0.3,96,0.3,43.70539004,-79.34343676
Three Valleys P.S.,173,95.4,2.3,95.4,2.3,43.75081287,-79.33762032
Timberbank Jr P.S.,152,98,0.7,94.7,0.7,43.79147126,-79.30728539
Tom Longboat Jr P.S.,178,96.6,1.7,93.8,1.7,43.81044617,-79.23162697
Topcliff P.S.,210,96.7,0,98.6,0,43.75568467,-79.51065816
Transfiguration of Our Lord C.S.,320,87.2,1.9,91.3,1.9,43.69152126,-79.56287073
Tredway Woodsworth P.S.,587,94,1.4,95.9,1.2,43.76492505,-79.23510926
Tumpane P.S.,232,94.4,1.7,95.3,1.7,43.72659528,-79.5022551
Twentieth Street Jr School,94,89.4,5.3,90.4,5.3,43.59797715,-79.51993824
Ursula Franklin Academy,521,83.7,3.8,95.2,3.8,43.65651377,-79.47442738
Valley Park Middle School,964,90.2,0.4,91.2,0.4,43.71044059,-79.33587052
Valleyfield Jr School,208,89.4,1.9,91.3,1.9,43.69421576,-79.53821993
Venerable John Merlini C.S.,210,88.1,1,93.8,1,43.75648059,-79.57938356
Victoria Park C.I.,1173,86.9,0.9,96.2,0.9,43.75605934,-79.32146442
Victoria Park Elementary,92,98.9,0,100,0,43.71268918,-79.29815076
Victoria Village P.S.,132,89.4,4.5,90.2,4.5,43.73595942,-79.31418208
Vradenburg Jr P.S.,145,98.6,0,98.6,0,43.77434227,-79.3082863
Walter Perry Jr P.S.,189,89.9,1.6,93.1,1.6,43.73345613,-79.25124569
Warren Park Jr P.S.,111,87.4,6.3,87.4,6.3,43.66284277,-79.49943751
Wedgewood Jr School,240,96.3,1.3,98.3,1.3,43.64531695,-79.54625291
Wellesworth Jr School,96,87.5,3.1,88.5,3.1,43.65663735,-79.57671875
West End Alternative,49,81.6,8.2,89.8,8.2,43.66242998,-79.41983402
West Glen Jr School,98,93.9,5.1,89.8,4.1,43.65083041,-79.56028182
West Hill C.I.,631,83.8,1.4,95.7,1.4,43.77566843,-79.19058757
West Hill P.S.,150,90.7,2.7,90,2.7,43.77267961,-79.18688444
West Humber C.I.,1016,85.2,0.9,96.1,0.9,43.7309224,-79.58670539
West Humber JMS,341,94.1,0.3,93.5,0.3,43.72382622,-79.58007455
West Preparatory Jr P.S.,341,94.1,3.5,94.1,3.5,43.70274372,-79.43303504
West Rouge Jr P.S.,199,91.5,5.5,91.5,5.5,43.79561842,-79.13371592
Western Technical & Commercial School,975,80.3,3.8,93.7,3.7,43.65709149,-79.47458151
Westmount Jr School,123,89.4,2.4,93.5,2.4,43.68909613,-79.5196593
Weston C.I.,894,84.2,1.3,95.3,1.2,43.70381631,-79.50942175
Weston Memorial Jr P.S.,157,97.5,1.3,98.1,1.3,43.70597815,-79.50932994
Westview Centennial S.S.,763,81.3,0.7,93.8,0.7,43.75239763,-79.52509053
Westway Jr School,122,94.3,1.6,95.9,1.6,43.69082212,-79.54899331
Westwood Middle School,373,90.3,2.9,95.2,2.9,43.6866933,-79.35069605
Wexford Collegiate School for The Arts,1084,84,2.1,96.5,2,43.74615957,-79.30679538
Wexford P.S.,250,91.2,1.6,92,1.6,43.74019034,-79.30372732
White Haven Jr P.S.,350,94.9,1.1,96,1.1,43.78699541,-79.2480509
Whitney Jr P.S.,161,95.7,2.5,95.7,2.5,43.68716034,-79.37839727
Wilkinson Jr P.S.,316,97.8,1.6,96.8,1.6,43.68204163,-79.33748324
William Burgess Elementary,202,91.1,3,91.1,3,43.69192773,-79.34815772
William G Davis Jr P.S.,170,98.8,0,95.9,0,43.78504643,-79.13447437
William G Miller Jr P.S.,373,93.8,3.5,96,3.5,43.76851356,-79.16503401
William J McCordic School,52,46.2,3.8,84.6,3.8,43.69063184,-79.29898334
William Lyon Mackenzie C.I.,1377,84.9,2.5,94.6,2.5,43.75347096,-79.46189416
Williamson Road Jr P.S.,356,97.2,2,96.9,2,43.67451106,-79.2974698
Willow Park Jr P.S.,216,97.2,0,99.1,0,43.7611981,-79.20957854
Willowdale Middle School,542,92.6,2.2,94.6,2.2,43.76977522,-79.42608898
Wilmington Elementary,101,92.1,0,90.1,0,43.7685018,-79.46071631
Winchester Jr & Sr P.S.,343,91.3,3.2,93.3,3.2,43.6665481,-79.37110718
Windfields Middle School,661,91.8,2.9,95.2,2.7,43.75622535,-79.37098613
Winona Drive Senior P.S.,414,87.4,5.1,94.2,5.1,43.67807637,-79.43106195
Winston Churchill C.I.,517,87,1.5,96.5,1.5,43.74789747,-79.27814694
Withrow Avenue Jr P.S.,366,96.2,2.5,95.6,2.5,43.67046046,-79.35212966
Woburn C.I.,877,88.6,0.2,98.5,0.2,43.77816511,-79.22845859
Woburn Jr P.S.,225,98.7,0,98.7,0,43.7795028,-79.22700166
Woodbine Jr H.S.,347,89.6,1.4,90.2,1.4,43.7842923,-79.35049619
York Humber H.S.,122,86.9,4.1,93.4,4.1,43.6885692,-79.50617746
York Memorial C.I.,876,86.8,2.5,96.3,2.5,43.69027872,-79.4762398
York Mills C.I.,1200,86.3,1.3,97.2,1.3,43.75152905,-79.3735239
Yorkview P.S.,256,93.8,2.3,93,2.3,43.77257361,-79.43556642
Yorkwoods P.S.,224,88.4,0.9,91.5,0.9,43.75065984,-79.51388475
Zion Heights Jr H.S.,592,94.4,1,96.5,1,43.7979149,-79.37109724
